"id","name","type","typeCode","bizType","address","gcj02_lng","gcj02_lat","wgs84_lng","wgs84_lat","tel","provinceName","cityName","adName"
"B0FFHRO39Z","上海市崇明区裕安中学安通路校区","科教文化服务;学校;中学","141202","[]","陈家镇安通路1169号","121.847609","31.528904","121.84339301664879","31.530958968834266","021-59400316","上海市","上海市","崇明区"
"B0FFHF5END","崇明区合兴中学","科教文化服务;学校;中学","141202","[]","合东村1341","121.715294","31.584988","121.71090199058443","31.58693201970511","[]","上海市","上海市","崇明区"
"B0FFHUC1G1","上海市实验学校附属东滩学校","科教文化服务;学校;中学","141202","[]","陈家镇雪雁路800号","121.807925","31.488978","121.80361241690024","31.49096589323909","021-59635999","上海市","上海市","崇明区"
"B00154D8PT","崇明区崇东中学","科教文化服务;学校;中学","141202","[]","陈家镇弘道中路77号","121.803918","31.497537","121.79959528118597","31.499516717000365","021-59431136","上海市","上海市","崇明区"
"B0FFHF5E2U","崇明区向化中学","科教文化服务;学校;中学","141202","[]","向化镇向中路110号","121.722778","31.521473","121.7183840463342","31.523414188810744","021-59441071","上海市","上海市","崇明区"
"B0FFG8CT8C","上海新纪元双语学校","科教文化服务;学校;中学","141202","[]","陈家镇陈西村1518号","121.784762","31.506607","121.7803991123088","31.508557582833145","021-59437525","上海市","上海市","崇明区"
"B0G16D136F","上海实验学校(东滩校区)","科教文化服务;学校;中学","141202","[]","陈家镇北陈公路雪雁路","121.807439","31.487811","121.80312535762309","31.489798251252704","[]","上海市","上海市","崇明区"
"B00155FHOI","大公中学","科教文化服务;学校;中学","141202","[]","育林路55","121.761639","31.529229","121.7572436632337","31.531157488666413","021-59441824","上海市","上海市","崇明区"
"B00155K03N","登瀛中学","科教文化服务;学校;中学","141202","[]","堡镇五滧村登瀛821号","121.68035","31.532392","121.67601821293775","31.534397039794715","021-59450428;021-59450102","上海市","上海市","崇明区"
"B0FFHFJR5F","上海市崇明区堡镇中学","科教文化服务;学校;中学","141202","[]","堡镇石岛路381号","121.620465","31.533365","121.61623086474354","31.53546714283843","021-59410099","上海市","上海市","崇明区"
"B001508407","民本中学","科教文化服务;学校;中学","141202","[]","向阳路216","121.613561","31.533873","121.60933164648456","31.53598059644981","021-59417010","上海市","上海市","崇明区"
"B00155K00L","上海市长明中学","科教文化服务;学校;中学","141202","[]","长兴镇潘圆公路1111号","121.737016","31.384816","121.7326257946366","31.386775361542405","021-33801727","上海市","上海市","崇明区"
"B00150840B","崇明区新光中学","科教文化服务;学校;中学","141202","[]","竖新镇响椿公路68号","121.601671","31.615576","121.59743804940831","31.61768367136423","021-59491825;021-62390431","上海市","上海市","崇明区"
"B00156OCO7","上海民办民一中学","科教文化服务;学校;中学","141202","[]","北堡镇解放街230号","121.632936","31.558085","121.6286862659446","31.56017059669799","021-39661923;021-39660504","上海市","上海市","崇明区"
"B0FFHF57GU","上海市崇明区正大中学","科教文化服务;学校;中学","141202","[]","石岛路388","121.622254","31.532187","121.61801838692642","31.534287561354414","021-59421003","上海市","上海市","崇明区"
"B00156EBV3","上海市横沙中学","科教文化服务;学校;中学","141202","[]","横沙乡民东路1503号","121.847763","31.342858","121.84356291000859","31.344956571218738","021-56896229;021-56890183","上海市","上海市","崇明区"
"B00155IRGA","上海市浦东新区今日学校","科教文化服务;学校;中学","141202","[]","南汇新城镇三三公路4958号","121.903455","30.95254","121.89937119443697","30.954890703569603","021-58292770;021-58291219","上海市","上海市","浦东新区"
"B00155ITSL","上海市新港中学","科教文化服务;学校;中学","141202","[]","新欣东路64","121.869938","30.983668","121.86581485924513","30.98597986590603","021-58196829;021-58196189","上海市","上海市","浦东新区"
"B00155IOJS","上海市书院中学","科教文化服务;学校;中学","141202","[]","书院镇石皮泐路76号","121.864341","30.928449","121.86021174757956","30.930786347055854","021-58061444","上海市","上海市","浦东新区"
"B00155N99H","上海中学东校","科教文化服务;学校;中学","141202","[]","环湖西三路1398号","121.921173","30.907098","121.91709015704473","30.909467228935924","021-20943321;021-20943361","上海市","上海市","浦东新区"
"B00150854E","上海市老港中学","科教文化服务;学校;中学","141202","[]","建中路1001号","121.844449","31.027233","121.84026696839845","31.02948005153081","021-58051045","上海市","上海市","浦东新区"
"B0FFGVLL88","上海市临港实验中学","科教文化服务;学校;中学","141202","[]","花柏路455号","121.905246","30.904255","121.90116657491018","30.906634078761282","021-20782110","上海市","上海市","浦东新区"
"B0FFGVLV3L","上海市临港第一中学","科教文化服务;学校;中学","141202","[]","马樱丹路116号","121.919542","30.883802","121.91546197939019","30.886186269456694","[]","上海市","上海市","浦东新区"
"B0015075A3","上海市万祥学校","科教文化服务;学校;中学","141202","[]","万牧路155号","121.823063","30.967094","121.81883169581793","30.96933680423541","021-58046443","上海市","上海市","浦东新区"
"B0HGZS3GJF","上海市浦东新区建平临港中学","科教文化服务;学校;中学","141202","[]","南汇新城镇紫荆花路299号","121.914008","30.896677","121.9099290730876","30.89905745268642","[]","上海市","上海市","浦东新区"
"B0HUYXU8OZ","上海市南汇第一中学(临港校区)","科教文化服务;学校;中学","141202","[]","南汇新城镇马樱丹路116号","121.919670","30.883117","121.9155899665359","30.885501567236464","021-20903655","上海市","上海市","浦东新区"
"B00150854F","上海市南汇第一中学","科教文化服务;学校;中学","141202","[]","卫星东路16号","121.758767","31.04454","121.75441053180327","31.046654983694953","021-58022940","上海市","上海市","浦东新区"
"B001556RYP","上海市大团中学","科教文化服务;学校;中学","141202","[]","永定南路304弄20号","121.742834","30.96713","121.73847834743053","30.969290256646488","021-58081005;021-58083542","上海市","上海市","浦东新区"
"B001508543","上海海洋大学附属大团高级中学","科教文化服务;学校;中学","141202","[]","南芦公路999号","121.750171","30.962012","121.74581698593133","30.964174213025174","021-58084099","上海市","上海市","浦东新区"
"B00156EKC1","上海市南汇第四中学","科教文化服务;学校;中学","141202","[]","沿河泾南路18号","121.761745","31.0445","121.75739084813547","31.04661611496285","021-58001680","上海市","上海市","浦东新区"
"B0FFH6SU4A","上海市东海学校","科教文化服务;学校;中学","141202","[]","祝桥镇东海图海路36号","121.812529","31.090664","121.80826100229999","31.092815548429673","021-68266560;021-58107250","上海市","上海市","浦东新区"
"B00157I4RG","上海市秋萍学校","科教文化服务;学校;中学","141202","[]","南汇新城镇芦潮港镇芦云路5号","121.851195","30.877529","121.84704138014034","30.879876090193147","[]","上海市","上海市","浦东新区"
"B00156OCN9","上海市泥城中学","科教文化服务;学校;中学","141202","[]","泥城路6号","121.829807","30.904795","121.82559810168254","30.907087399175573","021-58078424","上海市","上海市","浦东新区"
"B0HA67BHK8","上海建桥国际高中","科教文化服务;学校;中学","141202","[]","上海市浦东新区沪城环路1111号","121.887442","30.892181","121.88335183314913","30.894563113861526","021-38128012","上海市","上海市","浦东新区"
"B0G2159KHL","上海中学东校高中部","科教文化服务;学校;中学","141202","[]","橄榄路339号","121.913486","30.889202","121.90940779739267","30.89158711855661","[]","上海市","上海市","浦东新区"
"B00150768D","上海市黄路学校","科教文化服务;学校;中学","141202","[]","观海路61号","121.780943","31.023178","121.77661447566963","31.02532126099802","[]","上海市","上海市","浦东新区"
"B001557FV5","松江区李塔汇学校","科教文化服务;学校;中学","141202","[]","塔汇路150号","121.180446","30.966165","121.17596195097062","30.968255007399577","021-57842183","上海市","上海市","松江区"
"B00155HU64","松江二中","科教文化服务;学校;中学","141202","[]","中山街道邱家湾路20号","121.245471","31.00839","121.24106407857397","31.010531785736468","021-57831383;021-57832619","上海市","上海市","松江区"
"B0FFHGFP84","上海对外经贸大学附属松江实验学校","科教文化服务;学校;中学","141202","[]","辰塔路与乐都西路十字交叉口西南角","121.18474","31.011844","121.18026063809786","31.013914926818842","[]","上海市","上海市","松江区"
"B001576CQH","松江区石湖荡松塔中学","科教文化服务;学校;中学","141202","[]","育新路699号松江区石湖荡镇党校","121.180864","30.968290","121.1763806106623","30.970379523263045","[]","上海市","上海市","松江区"
"B0G0ABPXB0","上海市松江区立达中学","科教文化服务;学校;中学","141202","[]","松汇西路秀南街87号","121.211449","31.005066","121.207016307744","31.007183761571653","[]","上海市","上海市","松江区"
"B00156D221","九峰实验学校","科教文化服务;学校;中学","141202","[]","中山街道方塔北路319号","121.247199","31.010551","121.24279195606175","31.0126917304232","021-57836125","上海市","上海市","松江区"
"B00155FILW","中山永丰实验学校","科教文化服务;学校;中学","141202","[]","中山西路140号","121.214836","31.007449","121.21040763499424","31.00956963679635","021-57812026","上海市","上海市","松江区"
"B001539A38","松江区第六中学","科教文化服务;学校;中学","141202","[]","中山二路200号","121.22945","31.011308","121.22503622987081","31.01344078599091","021-57810504","上海市","上海市","松江区"
"B0FFLEL2Z3","松江七中(初三年级)","科教文化服务;学校;中学","141202","[]","中山中路706弄-9原松江实验小学","121.222873","31.007835","121.218453785009","31.00996419339322","[]","上海市","上海市","松江区"
"B0FFHPC2OG","松江二中(集团)初级中学","科教文化服务;学校;中学","141202","[]","邱家湾路20号松江二中","121.245857","31.009948","121.24144997215438","31.01208892764517","021-57833817","上海市","上海市","松江区"
"B00155LCQH","上海师范大学附属外国语中学","科教文化服务;学校;中学","141202","[]","永丰街道仓丰路99号","121.212907","31.009071","121.20847596495142","31.011188286535834","021-67717111;021-67717078","上海市","上海市","松江区"
"B001544453","立达中学","科教文化服务;学校;中学","141202","[]","松汇西路1260号","121.213428","31.004144","121.2089980758442","31.006264842940226","021-57828061","上海市","上海市","松江区"
"B00154CE93","松江区仓桥学校","科教文化服务;学校;中学","141202","[]","仓汇路336号","121.204135","31.007601","121.19969112817043","31.00970699246289","021-67815401","上海市","上海市","松江区"
"B0G1G1QM88","华实高级中学","科教文化服务;学校;中学","141202","[]","江学路与文诚路交叉口南220米","121.212408","31.030172","121.20797451292002","31.03227629320106","[]","上海市","上海市","松江区"
"B001509B94","松江一中","科教文化服务;学校;中学","141202","[]","松汇中路601号","121.233962","31.002931","121.22955187801163","31.005071712985483","021-57822996","上海市","上海市","松江区"
"B00154D78C","上海交大南洋中学","科教文化服务;学校;中学","141202","[]","亭林镇松隐大街100号上海交大","121.245105","30.891824","121.2407078150617","30.89403461015027","021-57381777","上海市","上海市","金山区"
"B00155EFB6","华东师范大学松江实验高级中学","科教文化服务;学校;中学","141202","[]","江学路450号","121.213732","31.03097","121.20930021947028","31.033075503030837","021-67712078","上海市","上海市","松江区"
"B001552U12","民乐学校","科教文化服务;学校;中学","141202","[]","人民北路439号","121.224713","31.018983","121.22029462041024","31.021107372218648","021-67724259","上海市","上海市","松江区"
"B0FFG8TSFB","松江二中(集团)初级中学分校","科教文化服务;学校;中学","141202","[]","松江工业区美能达路601-10号","121.245869","31.020443","121.2414610914541","31.02257777253781","[]","上海市","上海市","松江区"
"B00155DCPV","松江第七中学","科教文化服务;学校;中学","141202","[]","岳阳街道谷阳北路333号","121.234507","31.016008","121.23009607904044","31.0181413395082","021-57822975","上海市","上海市","松江区"
"B00154AF4C","崇明区实验中学(西园校区)","科教文化服务;学校;中学","141202","[]","城桥镇西园路237号","121.390496","31.627356","121.38581311286634","31.629099713820636","021-59613950","上海市","上海市","崇明区"
"B0015576X4","上海市嘉定区娄塘学校","科教文化服务;学校;中学","141202","[]","娄塘镇娄塘路789号","121.214267","31.432351","121.20980186060146","31.43427909413692","021-59543570","上海市","上海市","嘉定区"
"B001508410","罗泾中学","科教文化服务;学校;中学","141202","[]","潘泾路6000号","121.335246","31.483222","121.33066485948792","31.485053304829933","021-66870108","上海市","上海市","宝山区"
"B00155K005","上海市高桥中学","科教文化服务;学校;中学","141202","[]","季景北路859号","121.582345","31.348043","121.57812469431865","31.350192900036642","021-58671938","上海市","上海市","浦东新区"
"B00155HX21","上海市东沟实验学校","科教文化服务;学校;中学","141202","[]","东波路268号上海市东沟实验学校附近","121.581926","31.282988","121.57771067193613","31.285162065238207","021-50694602;021-50694606","上海市","上海市","浦东新区"
"B00155HDQL","上海师范大学附属高桥实验中学","科教文化服务;学校;中学","141202","[]","莱阳路4086号","121.580458","31.336634","121.57623667097988","31.338786477737976","021-58626355;021-58626373","上海市","上海市","浦东新区"
"B00150848C","上海市杨园中学","科教文化服务;学校;中学","141202","[]","上游村卢家宅50号","121.630687","31.307989","121.62646100550374","31.310136437462823","021-68481818","上海市","上海市","浦东新区"
"B001508420","上海市民办外高桥中学","科教文化服务;学校;中学","141202","[]","高桥镇欧高路钟家弄74号","121.576129","31.356846","121.57190077771924","31.358987836715567","[]","上海市","上海市","浦东新区"
"B001522CED","上海市金川中学","科教文化服务;学校;中学","141202","[]","莱阳路588号(利津路376号)","121.583833","31.27617","121.57962008290126","31.278348149968735","021-58462360","上海市","上海市","浦东新区"
"B0HRUSGXQ3","进才森兰实验中学","科教文化服务;学校;中学","141202","[]","繁锦路1208号","121.585562","31.307559","121.58134799242207","31.309725541403992","[]","上海市","上海市","浦东新区"
"B0GKDARZHI","SHANGHAI HARROW INTERNATIONAL SCHOOL","科教文化服务;学校;中学","141202","[]","高西路与兰嵩路交叉口西南160米","121.591929","31.317422","121.58771841481479","31.319587315500637","[]","上海市","上海市","浦东新区"
"B0FFLG6I5I","SHANGHAI GOLD APPLE BILINGUAL SCHOOL","科教文化服务;学校;中学","141202","[]","巨峰路与金京路交叉口东280米","121.619879","31.279963","121.6156664586905","31.282133416908284","[]","上海市","上海市","浦东新区"
"B0FFHUJPQF","HARROW","科教文化服务;学校;中学|公司企业;公司;公司|购物服务;购物相关场所;购物相关场所","141202|170200|060000","[]","兰嵩路上海哈罗国际学校","121.591642","31.318093","121.58743121283224","31.320257990407214","[]","上海市","上海市","浦东新区"
"B0GKUUIWL2","立信附校(证大校区)","科教文化服务;学校;中学","141202","[]","五莲路与归昌路交叉口北120米","121.599293","31.278610","121.5950879542644","31.28079130436147","[]","上海市","上海市","浦东新区"
"B001556Q5X","上海市成功教育实验学校三灶学校","科教文化服务;学校;中学","141202","[]","南六公路698号","121.713744","31.071807","121.70939726641816","31.07392942526443","021-58033662;021-58036176","上海市","上海市","浦东新区"
"B0FFGAR3HS","上海市南汇第五中学","科教文化服务;学校;中学","141202","[]","惠南镇听潮路1455号","121.741201","31.067396","121.73683698103002","31.069498102633933","021-68010027","上海市","上海市","浦东新区"
"B0FFH7FGZW","进才中学东校","科教文化服务;学校;中学","141202","[]","祝桥镇祝潘公路39号","121.753751","31.124815","121.74938476164772","31.12688369538308","[]","上海市","上海市","浦东新区"
"B0FFFDQBAV","周浦实验学校(总校)","科教文化服务;学校;中学","141202","[]","瑞阳路261号","121.589422","31.09679","121.58522822119879","31.09905980909403","021-20979512;021-20979730","上海市","上海市","浦东新区"
"B001570KSG","上海市民办民远高级中学","科教文化服务;学校;中学","141202","[]","唐陆公路3928号","121.659742","31.197924","121.65547817076794","31.200073044348205","[]","上海市","上海市","浦东新区"
"B00156OCTB","奉贤区星火学校","科教文化服务;学校;中学","141202","[]","海湾镇星安路216号","121.567169","30.861243","121.56296790242101","30.863631163622806","021-57501584","上海市","上海市","奉贤区"
"B0FFJ1DEXL","上海市南汇第四中学(北校区)","科教文化服务;学校;中学","141202","[]","拱优路199号","121.753764","31.070327","121.74940235796858","31.072426048079986","[]","上海市","上海市","浦东新区"
"B00156OCNJ","浦东教育发展研究院附属中学","科教文化服务;学校;中学","141202","[]","祝桥镇南祝路2650号","121.761229","31.079811","121.75687145045467","31.08190666787526","[]","上海市","上海市","浦东新区"
"B00156D9J7","上海协和国际学校","科教文化服务;学校;中学","141202","[]","黄杨路345号","121.590914","31.238987","121.58670937444174","31.241184617513646","021-58990380","上海市","上海市","浦东新区"
"B00155IQ52","奉贤区奉城第二中学","科教文化服务;学校;中学","141202","[]","奉城镇西门港路38号","121.639804","30.913191","121.63559810553531","30.915534642726957","021-57513469;021-57522108","上海市","上海市","奉贤区"
"B00155747A","华东师范大学附属周浦中学","科教文化服务;学校;中学","141202","[]","繁荣路188号(繁荣路地铁站1号口步行420米)","121.57462","31.105852","121.57041052538088","31.10810643889825","021-58111437;021-68112400","上海市","上海市","浦东新区"
"B001556TDE","上海第二工业大学附属龚路中学","科教文化服务;学校;中学","141202","[]","龚路北街50号","121.678808","31.264901","121.67450173253823","31.266982949030833","021-58562503","上海市","上海市","浦东新区"
"B001553GUZ","上海尚德实验学校","科教文化服务;学校;中学","141202","[]","秀沿路1688号(近周园路)","121.596161","31.135209","121.59196714433607","31.13745922760644","021-68180017","上海市","上海市","浦东新区"
"B0FFHBBOAS","光华中学","科教文化服务;学校;中学","141202","[]","川周公路2800号上海民办光华中学初中部教学楼","121.625127","31.145107","121.6209207712202","31.147336381746246","021-35323599;021-55805122","上海市","上海市","浦东新区"
"B00155IQ7R","上海市傅雷中学","科教文化服务;学校;中学","141202","[]","关岳路301号","121.590093","31.121851","121.58589756940339","31.124107233278437","021-68119009","上海市","上海市","浦东新区"
"B0015591ZX","上海市蔡路中学","科教文化服务;学校;中学","141202","[]","合庆镇蔡路东川公路7851号(庆利路庆荣路)","121.729043","31.21443","121.72467064106536","31.21646117208694","021-68900009","上海市","上海市","浦东新区"
"B0FFJHV4U0","上海市浦东新区三灶实验中学","科教文化服务;学校;中学","141202","[]","寅旺路33号","121.704358","31.057006","121.70002487870866","31.05915004834494","[]","上海市","上海市","浦东新区"
"B00154S493","上海市进才实验中学","科教文化服务;学校;中学","141202","[]","金松路191号","121.556792","31.225536","121.55254007333926","31.22770379520506","021-68545988","上海市","上海市","浦东新区"
"B00152F6A6","金杨中学","科教文化服务;学校;中学","141202","[]","金口路166号","121.576527","31.248555","121.57230828740295","31.25073936664566","021-50702483","上海市","上海市","浦东新区"
"B00155IOIQ","奉贤区头桥中学","科教文化服务;学校;中学","141202","[]","振兴路18号","121.643804","30.958777","121.63958813047601","30.96108739130693","021-57550967","上海市","上海市","奉贤区"
"B001558AXT","上海张江集团学校","科教文化服务;学校;中学","141202","[]","藿香路38号","121.593793","31.202052","121.58959281004421","31.204267685803107","021-50278818;021-50802612","上海市","上海市","浦东新区"
"B001557L6Q","上海市新场中学","科教文化服务;学校;中学","141202","[]","东后老街152号","121.649557","31.021845","121.64532630398922","31.0241085627286","021-58171735;021-68171146","上海市","上海市","浦东新区"
"B001556QUN","上海市川沙中学华夏西校(东校区)","科教文化服务;学校;中学","141202","[]","妙境路349号","121.690855","31.193645","121.68653236631765","31.1957377042279","021-58374582","上海市","上海市","浦东新区"
"B00154ZIQM","奉贤区洪庙中学","科教文化服务;学校;中学","141202","[]","浦东路2","121.683926","30.925616","121.67963835273865","30.92787236953312","021-57131827","上海市","上海市","奉贤区"
"B001537C7F","上海市浦兴中学","科教文化服务;学校;中学","141202","[]","长岛路1515号(长岛路牟平路)","121.599114","31.264747","121.5949100777412","31.266934175126288","021-68952349","上海市","上海市","浦东新区"
"B0015277CD","中芯学校","科教文化服务;学校;中学","141202","[]","青桐路169号","121.619386","31.2201","121.61517881422242","31.222297412846146","021-58554588","上海市","上海市","浦东新区"
"B001508504","上海市孙桥中学","科教文化服务;学校;中学","141202","[]","孙桥镇孙桥路705号","121.632516","31.173073","121.62829889191465","31.175278927161344","021-58575521","上海市","上海市","浦东新区"
"B00155FIKC","上海市施湾中学","科教文化服务;学校;中学","141202","[]","施湾二路87号","121.747207","31.144536","121.74283685477222","31.14659409505463","021-68967239","上海市","上海市","浦东新区"
"B001556W5P","上海奉贤金沪学校","科教文化服务;学校;中学","141202","[]","新朝路上海奉贤区民办超群小学","121.663592","30.975552","121.65933929935247","30.977817381010418","[]","上海市","上海市","奉贤区"
"B0IBOSK6E0","上海民办华曜浦东实验学校","科教文化服务;学校;中学","141202","[]","川周公路2788号","121.621198","31.143636","121.61699561962442","31.145870170760375","021-68770508","上海市","上海市","浦东新区"
"B0HR6D8038","上海开放大学附属高级中学(常青分校)","科教文化服务;学校;中学","141202","[]","达秀路151B幢","121.652784","31.238055","121.6485296745892","31.240197694815027","021-58126973","上海市","上海市","浦东新区"
"B0H325694D","上海市澧溪中学(年家浜路校区)","科教文化服务;学校;中学","141202","[]","周康路17弄18号","121.572320","31.116417","121.56810632804586","31.118663140903244","021-68061182","上海市","上海市","浦东新区"
"B0H11LP6XT","上海市川沙中学(新校区)","科教文化服务;学校;中学","141202","[]","营洪路481号","121.723681","31.199627","121.71931364690705","31.201670036153885","[]","上海市","上海市","浦东新区"
"B0FFLFOHIN","远东宏信宏文学校(上海浦东校区)","科教文化服务;学校;中学","141202","[]","川沙新镇川大路319号","121.703635","31.166446","121.6992937549689","31.168531150764686","[]","上海市","上海市","浦东新区"
"B0FFLESILG","Concordia INTERNATIONAL SCHOOL SHANGHAI","科教文化服务;学校;中学","141202","[]","明月路与黄杨路交叉口东北20米","121.590534","31.237605","121.58632927446408","31.239803129881448","[]","上海市","上海市","浦东新区"
"B0FFLDL4T9","上海市航头学校","科教文化服务;学校;中学|科教文化服务;学校;小学","141202|141203","[]","航头镇学诚路1号","121.590932","31.030326","121.58674457552642","31.032634314968174","[]","上海市","上海市","浦东新区"
"B0FFL03ZYF","上实剑桥","科教文化服务;学校;中学","141202","[]","唐陆公路3892号上海民远学院北区","121.660932","31.199436","121.65666578994178","31.201582088034435","[]","上海市","上海市","浦东新区"
"B0FFJ9ODMH","进才中学南校(航春路校区)","科教文化服务;学校;中学","141202","[]","航头镇航春路399号","121.60705","31.079306","121.6028609334588","31.081585203712145","[]","上海市","上海市","浦东新区"
"B0FFHFJPW3","上海市高桥一东陆学校东陆校区","科教文化服务;学校;中学","141202","[]","博兴路1432号","121.601356","31.270075","121.59715182387345","31.272259644524492","[]","上海市","上海市","浦东新区"
"B0FFFGV70U","上海美国学校浦东校区","科教文化服务;学校;中学","141202","[]","叁甲港凌白公路1600号","121.758193","31.232638","121.75382026608526","31.23465325948369","[]","上海市","上海市","浦东新区"
"B00155N8X7","长兴中学","科教文化服务;学校;中学","141202","[]","凤凰街27号","121.691443","31.387343","121.68710300780909","31.389357180107975","[]","上海市","上海市","崇明区"
"B0FFH9MK6D","崇明区三烈中学","科教文化服务;学校;中学","141202","[]","竖新镇新烈南路226号","121.572612","31.563633","121.56836156153996","31.565729292521176","021-59482469","上海市","上海市","崇明区"
"B0FFI1OUQJ","浦东模范实验中学","科教文化服务;学校;中学","141202","[]","高宝路","121.617479","31.291247","121.61326736678042","31.293414874992173","[]","上海市","上海市","浦东新区"
"B001526821","上海市育民中学","科教文化服务;学校;中学","141202","[]","高桥西街217号","121.579854","31.341556","121.57563159237117","31.34370628340294","021-58678402","上海市","上海市","浦东新区"
"B001551B0E","上海市高行中学","科教文化服务;学校;中学","141202","[]","行泰路210号","121.609239","31.288829","121.60503198789655","31.291003267847426","021-58651131;021-68976050;021-68976059","上海市","上海市","浦东新区"
"B001508492","上海市顾路中学民冬校区","科教文化服务;学校;中学","141202","[]","曹路镇民冬路71号","121.658845","31.288433","121.65457530987065","31.29054300916222","021-58631537","上海市","上海市","浦东新区"
"B00157HU6W","上海市竹园中学森兰校区","科教文化服务;学校;中学","141202","[]","高西路601号","121.590896","31.319283","121.58668471403348","31.321447336480286","021-50431071","上海市","上海市","浦东新区"
"B001509A2E","上海市高东中学","科教文化服务;学校;中学","141202","[]","光明路476号","121.619512","31.329172","121.61529567303371","31.331323652242087","021-58484351;021-58480918","上海市","上海市","浦东新区"
"B0FFLFOFTC","上海立信会计金融学院附属学校","科教文化服务;学校;中学","141202","[]","巨峰路与五莲路交叉口东220米","121.601249","31.279433","121.59704404584681","31.281613736185243","[]","上海市","上海市","浦东新区"
"B0FFL3XUPI","上海立信会计金融学院附属学校(高行校区)","科教文化服务;学校;中学","141202","[]","高行镇莱阳路1423号","121.583067","31.293424","121.57885193371229","31.295594605277692","[]","上海市","上海市","浦东新区"
"B0FFHRSXVG","上海哈罗外籍人员子女学校","科教文化服务;学校;中学","141202","[]","高行镇高西路588号","121.591355","31.318083","121.58714406311223","31.320247916169492","021-68818282","上海市","上海市","浦东新区"
"B0FFGEMCM1","上海市顾路中学金钻校区","科教文化服务;学校;中学","141202","[]","曹路镇金钻路920号","121.677576","31.278885","121.67327092956532","31.28096338121116","[]","上海市","上海市","浦东新区"
"B00157GGOS","上海市浦东复旦附中分校","科教文化服务;学校;中学","141202","[]","金睦路366号","121.673007","31.286224","121.66871017328998","31.28830808448551","021-50762116","上海市","上海市","浦东新区"
"B00156E41O","上海市浦东模范中学东校","科教文化服务;学校;中学","141202","[]","曹路镇海纳路82号","121.670352","31.290744","121.66605996632573","31.29283133474159","021-38722671","上海市","上海市","浦东新区"
"B00155KVXH","陆行中学北校","科教文化服务;学校;中学","141202","[]","利津路53号(近浦东大道)","121.578961","31.28013","121.57474266733438","31.282302962331688","021-50349778","上海市","上海市","浦东新区"
"B00155LHWH","上海工商外国语学院附属中学","科教文化服务;学校;中学","141202","[]","勤奋路228号","121.780565","31.045829","121.77623396864539","31.047958663109064","021-68021019;021-68020090","上海市","上海市","浦东新区"
"B0FFFNUAFD","上海市三墩学校","科教文化服务;学校;中学","141202","[]","三宣公路395号","121.754084","30.992391","121.74972906601533","30.994535471976747","021-58231558","上海市","上海市","浦东新区"
"B00150ABBA","南汇第三中学","科教文化服务;学校;中学","141202","[]","惠南镇梅花路185号(惠南地铁站3号口步行360米)","121.759181","31.052106","121.75482419409867","31.0542167443767","021-58021192","上海市","上海市","浦东新区"
"B0FFHHO68P","上海市浦东新区东城学校","科教文化服务;学校;中学","141202","[]","惠南镇拱北路51号","121.785074","31.056367","121.78074969223609","31.058495743016785","[]","上海市","上海市","浦东新区"
"B0FFGLMALN","奉贤区平安学校","科教文化服务;学校;中学","141202","[]","四团镇四平公路1249号","121.731812","30.902277","121.72746441127299","30.904481054851395","021-57541265;021-57541272","上海市","上海市","奉贤区"
"B0FFHVG7P1","上海开放大学附属高级中学(朝阳义塾分校)","科教文化服务;学校;中学","141202","[]","芦洲大道330号","121.796351","30.859124","121.79206506731508","30.861384063832315","021-58173018;021-33130536","上海市","上海市","浦东新区"
"B00155AT3U","南汇实验学校","科教文化服务;学校;中学","141202","[]","惠南镇西门路24号红十字生命健康安全体验教室","121.747796","31.047266","121.74343417305585","31.04937820323803","021-58001905","上海市","上海市","浦东新区"
"B0FFJFOKBM","上海市南汇第一中学(南校区)","科教文化服务;学校;中学","141202","[]","听潮南路933弄18号","121.742174","31.025523","121.73781345444739","31.027649002135092","[]","上海市","上海市","浦东新区"
"B00155LYJZ","上海市南汇第二中学","科教文化服务;学校;中学","141202","[]","惠南镇拱北路2300号","121.739878","31.056462","121.73551503313409","31.058570861857216","021-68036042","上海市","上海市","浦东新区"
"B00156GFW7","上海市南汇中学","科教文化服务;学校;中学","141202","[]","学海路288号","121.787895","31.05662","121.78357578814614","31.058752130346964","021-68259001;021-68259398","上海市","上海市","浦东新区"
"B00155LD6V","上海师范大学附属第二外国语学校","科教文化服务;学校;中学","141202","[]","惠南镇观海路699号","121.781338","31.051579","121.7770077390083","31.0537061808935","021-58009270;021-68001257","上海市","上海市","浦东新区"
"B00155IT5F","四团中学","科教文化服务;学校;中学","141202","[]","文鹏路169","121.721915","30.941028","121.71757086738346","30.943217670672812","021-57533461","上海市","上海市","奉贤区"
"B0HAOBFTUD","上海开放大学附属高级中学成才分校","科教文化服务;学校;中学","141202","[]","拱极路3800号","121.750658","31.053626","121.74629645831847","31.055734405287296","4001616765","上海市","上海市","浦东新区"
"B0FFLCTUEE","上海市电视高级中学成才分校","科教文化服务;学校;中学","141202","[]","成才教育进修学院南门旁","121.750695","31.053631","121.74633347090104","31.055739402812822","[]","上海市","上海市","浦东新区"
"B0H3RCHTDE","上海师范大学附属浦东临港中学","科教文化服务;学校;中学","141202","[]","芦安路295号","121.855704","30.864044","121.85156175610337","30.86640628861398","[]","上海市","上海市","浦东新区"
"B001556W78","奉贤区邵厂学校","科教文化服务;学校;中学","141202","[]","四团镇邵厂社区东海路3号","121.761811","30.904873","121.75746860612445","30.907071512698217","021-57143080","上海市","上海市","奉贤区"
"B00155IO9J","上海市祝桥高级中学","科教文化服务;学校;中学","141202","[]","川南奉公路5062号","121.755907","31.114374","121.75154279999116","31.11644875406687","021-58107183","上海市","上海市","浦东新区"
"B001556W6V","奉贤区景秀高级中学","科教文化服务;学校;中学","141202","[]","六团公路379号","121.726951","30.949828","121.72260223067478","30.952007696005943","[]","上海市","上海市","奉贤区"
"B0FFKCRCA8","上海市南汇第二中学(东校区)","科教文化服务;学校;中学","141202","[]","拱为路690号","121.775352","31.060585","121.77101187006575","31.06270098200775","[]","上海市","上海市","浦东新区"
"B001570MCR","上海市南汇业余中学","科教文化服务;学校;中学","141202","[]","惠南镇县东街7号","121.756165","31.049173","121.75180644092715","31.051284606468627","021-58014426","上海市","上海市","浦东新区"
"B0FFHKRN0T","上海市北蔡中学","科教文化服务;学校;中学","141202","[]","北蔡镇鹏飞路295号(北蔡中学内)","121.557262","31.173441","121.55301545000353","31.175635089407812","[]","上海市","上海市","浦东新区"
"B0FFGCERPH","上海市澧溪中学分校","科教文化服务;学校;中学","141202","[]","周浦镇周阳路29号","121.602619","31.098011","121.59842901834622","31.100281075032896","[]","上海市","上海市","浦东新区"
"B0FFG455PV","利乐中国质量学校","科教文化服务;学校;中学","141202","[]","康桥东路201号","121.600010","31.151964","121.5958154969645","31.154205259675887","[]","上海市","上海市","浦东新区"
"B0FFFTG061","上海市下沙学校中学部","科教文化服务;学校;中学","141202","[]","鹤沙路500号","121.595772","31.082839","121.59158233862594","31.08511805268322","021-58141798","上海市","上海市","浦东新区"
"B0FFFRA9DB","川沙中学南校","科教文化服务;学校;中学","141202","[]","川沙镇川环南路1295号","121.688459","31.182998","121.68414154676175","31.18510030277262","021-50921386","上海市","上海市","浦东新区"
"B00157HU4U","建平远翔学校","科教文化服务;学校;中学","141202","[]","五莲路1020号(近荷泽路)","121.594153","31.270494","121.58994729439617","31.272678507288926","021-68511279","上海市","上海市","浦东新区"
"B00156OCMV","上海市新川中学","科教文化服务;学校;中学","141202","[]","新德西路196号","121.674763","31.193893","121.67047049239855","31.196015508390154","021-58910002","上海市","上海市","浦东新区"
"B00156OANS","上海海事大学附属北蔡高级中学","科教文化服务;学校;中学","141202","[]","莲园路246号","121.552829","31.184377","121.54857125323592","31.186557370354333","021-58912358;021-58911368","上海市","上海市","浦东新区"
"B00156F8JX","上海外国语大学附属浦东外国语学校","科教文化服务;学校;中学","141202","[]","达尔文路91号","121.587569","31.194102","121.5833659435691","31.196319662765244","021-58550028;021-58558846","上海市","上海市","浦东新区"
"B00156EOX8","上海新竹园中学(龙居校区)","科教文化服务;学校;中学","141202","[]","龙居路118号","121.560657","31.253706","121.55641107372217","31.25586760064124","021-58511547","上海市","上海市","浦东新区"
"B00156ELNX","上海市唐镇中学","科教文化服务;学校;中学","141202","[]","唐镇齐爱路646号","121.664785","31.203959","121.66051103042476","31.206095632733778","021-58962065","上海市","上海市","浦东新区"
"B00155QNQZ","华东师范大学张江实验中学","科教文化服务;学校;中学","141202","[]","紫薇路505号","121.617404","31.206482","121.61319943797733","31.208687599903143","021-58551206","上海市","上海市","浦东新区"
"B00155QMQH","上海市竹园中学","科教文化服务;学校;中学","141202","[]","益江路350号","121.628188","31.199254","121.62397398244119","31.201452271123834","021-68671986","上海市","上海市","浦东新区"
"B00155LM5F","上海市实验学校东校","科教文化服务;学校;中学","141202","[]","黑松路251号(近碧云路)","121.573931","31.233119","121.569710038232","31.235307749880413","021-50308661;021-50308660","上海市","上海市","浦东新区"
"B00155L1UX","上海市合庆中学","科教文化服务;学校;中学","141202","[]","东川公路5721号","121.718624","31.239934","121.71425780977859","31.241963337934973","021-58971208","上海市","上海市","浦东新区"
"B00155IW24","华东师范大学第二附属中学","科教文化服务;学校;中学","141202","[]","晨晖路555号(张江高科地铁站2号口步行330米)","121.591196","31.200838","121.58699468142844","31.2030536874596","021-50801890","上海市","上海市","浦东新区"
"B00155IOID","奉贤区青溪中学青村校区","科教文化服务;学校;中学","141202","[]","青村南路188号","121.58411","30.921077","121.57992656843018","30.92344678894553","021-57561254","上海市","上海市","奉贤区"
"B00155IO6C","康城学校","科教文化服务;学校;中学","141202","[]","拯安路30号","121.614758","31.139125","121.61056073526922","31.141366941486734","021-38256660;021-38256668","上海市","上海市","浦东新区"
"B00155HJY9","上海市沪新中学","科教文化服务;学校;中学","141202","[]","莱阳路224号","121.580536","31.272875","121.57632004684844","31.27505225393227","021-58710139","上海市","上海市","浦东新区"
"B00155FZ0E","建平中学西校大唐校区","科教文化服务;学校;中学","141202","[]","樱花路630号","121.556521","31.206457","121.55227004891047","31.20863337435437","021-50452645","上海市","上海市","浦东新区"
"B00154S493","上海市进才实验中学","科教文化服务;学校;中学","141202","[]","金松路191号","121.556792","31.225536","121.55254007333926","31.22770379520506","021-68545988","上海市","上海市","浦东新区"
"B00152F6A6","金杨中学","科教文化服务;学校;中学","141202","[]","金口路166号","121.576527","31.248555","121.57230828740295","31.25073936664566","021-50702483","上海市","上海市","浦东新区"
"B00155IOIQ","奉贤区头桥中学","科教文化服务;学校;中学","141202","[]","振兴路18号","121.643804","30.958777","121.63958813047601","30.96108739130693","021-57550967","上海市","上海市","奉贤区"
"B00155QH7D","上海市进才中学北校","科教文化服务;学校;中学","141202","[]","苗圃路555号","121.552152","31.23394","121.5478884838192","31.236095229968164","021-58859927","上海市","上海市","浦东新区"
"B0FFF3UDLB","肇文学校","科教文化服务;学校;中学","141202","[]","城协路1650号","121.654269","30.911645","121.65003902341525","30.913965453592464","021-37582152","上海市","上海市","奉贤区"
"B0FFI2CPTC","上海市航头学校(鹤永路校区)","科教文化服务;学校;中学","141202","[]","航头镇鹤永路432号","121.601091","31.077472","121.5969027015002","31.079753900461213","[]","上海市","上海市","浦东新区"
"B001558059","上海市吴迅中学(初中部)","科教文化服务;学校;中学","141202","[]","上南路6818号","121.563058","31.117535","121.55882819629252","31.11976819805135","021-68132514","上海市","上海市","浦东新区"
"B001536AF5","上海市建平中学","科教文化服务;学校;中学","141202","[]","崮山路517号","121.558804","31.243501","121.55455500701305","31.245664061772658","021-58851542","上海市","上海市","浦东新区"
"B001525761","上海市华林中学","科教文化服务;学校;中学","141202","[]","申波路231号","121.562829","31.193324","121.55859247233327","31.195517297715327","021-58916407","上海市","上海市","浦东新区"
"B001557L5M","上海市六灶中学","科教文化服务;学校;中学","141202","[]","六灶镇鹿溪南路43号","121.698889","31.113544","121.69455951546472","31.115664865510773","021-58166788","上海市","上海市","浦东新区"
"B00156EE6F","上海市奉贤区曙光中学","科教文化服务;学校;中学","141202","[]","川博路100号","121.659722","30.922367","121.65548104942711","30.92467116219558","021-57513988","上海市","上海市","奉贤区"
"B00155IT00","上海市施湾中学","科教文化服务;学校;中学","141202","[]","施湾二路850号","121.746567","31.14412","121.74219677339153","31.146178400710117","021-68966786","上海市","上海市","浦东新区"
"B00156OCNC","浦东新区澧溪中学","科教文化服务;学校;中学","141202","[]","康沈路","121.578443","31.109881","121.57423812942865","31.11213682754686","021-58116718","上海市","上海市","浦东新区"
"B0I6FHKTO6","上海市隆行中学","科教文化服务;学校;中学","141202","[]","中环路出口与金工路交叉口东南140米","121.586582","31.253622","121.5823732809934","31.255811356279786","[]","上海市","上海市","浦东新区"
"B0HU7PXA3Z","上海市吴迅中学","科教文化服务;学校;中学","141202","[]","上南路6818号","121.563100","31.117524","121.55887027928267","31.119757268190224","021-68132514;021-68132911","上海市","上海市","浦东新区"
"B0H2GRVNMV","上海市浦东新区建平培德实验中学","科教文化服务;学校;中学","141202","[]","唐龙路1588号","121.670423","31.222507","121.66613654054764","31.224624028099022","[]","上海市","上海市","浦东新区"
"B0GDRHCX6O","更新学校","科教文化服务;学校;中学","141202","[]","唐陆公路2398号","121.646614","31.223777","121.64237159728815","31.22593690251447","021-58178872","上海市","上海市","浦东新区"
"B0G3F7M6AL","周浦实验学校","科教文化服务;学校;中学","141202","[]","瑞建路与瑞阳路交叉口东北80米","121.589409","31.096771","121.58521521456923","31.099040814940448","[]","上海市","上海市","浦东新区"
"B0FFLF20U6","新场实验中学(笋南路校区)","科教文化服务;学校;中学","141202","[]","新场镇笋南路28号","121.644094","31.017461","121.63987282946506","31.019736242362747","[]","上海市","上海市","浦东新区"
"B0FFJIN3NB","上海市侨光中学(妙川校区)","科教文化服务;学校;中学","141202","[]","妙川路959号","121.70932","31.180598","121.704969611899","31.182667593658646","[]","上海市","上海市","浦东新区"
"B00156GW5Q","建平实验中学地杰国际城校区","科教文化服务;学校;中学","141202","[]","御桥路1977号(御桥地铁站1号口步行180米)","121.573048","31.159435","121.56883185764475","31.16165898132192","021-38910227","上海市","上海市","浦东新区"
"B0FFJRBSEU","卡迪夫公学上海校区","科教文化服务;学校;中学","141202","[]","洪运路398号","121.687286","30.920032","121.68299262147826","30.922285487655838","4009969600","上海市","上海市","奉贤区"
"B0FFLGAAYU","光明学校","科教文化服务;学校;中学","141202","[]","祝桥镇千汇铬751弄","121.763660","31.116376","121.75930149329083","31.11845240262562","[]","上海市","上海市","浦东新区"
"B00156D6R1","上海市实验学校附属光明学校东校区","科教文化服务;学校;中学","141202","[]","祝桥镇千汇路751弄-1号","121.763538","31.116433","121.75917937592276","31.11850931097767","021-58107783","上海市","上海市","浦东新区"
"B0FFLCN4HC","上海市民办平和学校","科教文化服务;学校;中学","141202","[]","黄杨路261号","121.589869","31.240239","121.58566366382364","31.242435713496118","[]","上海市","上海市","浦东新区"
"B0FFL7Y6XO","上海市浦东新区新场实验中学","科教文化服务;学校;中学","141202","[]","众安路780号","121.659393","31.027056","121.65514401850766","31.02929888825195","[]","上海市","上海市","浦东新区"
"B0FFI9Q1OH","上海市吴迅中学","科教文化服务;学校;中学","141202","[]","瑞和路578号","121.594792","31.088349","121.59060156098954","31.09062484876051","[]","上海市","上海市","浦东新区"
"B0FFHXRSA7","上海市周浦实验学校(分校)","科教文化服务;学校;中学","141202","[]","周浦镇周园路2008号","121.596184","31.09178","121.59199372540517","31.094054054910767","021-68090302","上海市","上海市","浦东新区"
"B0FFHJ3BHH","上海浦东新区民办万科学校","科教文化服务;学校;中学","141202","[]","康桥路1700号2-4号","121.584131","31.148746","121.57992888817509","31.150985024980596","021-34633623","上海市","上海市","浦东新区"
"B0FFHGH3FJ","上海市川沙中学华夏西校(华夏二路校区)","科教文化服务;学校;中学","141202","[]","川沙新镇川沙镇华夏二路150号","121.683301","31.195672","121.67899200049492","31.197777476595427","021-58371225","上海市","上海市","浦东新区"
"B0FFHC4VHY","王港中学(恒生校区)","科教文化服务;学校;中学","141202","[]","宏雅路55号","121.674614","31.240817","121.67031785459173","31.242917563738903","021-58582497;021-58582384","上海市","上海市","浦东新区"
"B0FFGO0NM9","上海市川沙中学北校","科教文化服务;学校;中学","141202","[]","华夏东路2475号","121.701181","31.203282","121.69684036941477","31.205352540879087","[]","上海市","上海市","浦东新区"
"B0FFGCEH5V","进才中学南校","科教文化服务;学校;中学","141202","[]","鹤韵路826号","121.595165","31.068924","121.59097628706549","31.071210890729894","021-20976862","上海市","上海市","浦东新区"
"B0FFG8U8NW","泰日学校中学部","科教文化服务;学校;中学","141202","[]","金汇镇泰青公路142号","121.563723","30.98479","121.55950543265989","30.98710044881188","[]","上海市","上海市","奉贤区"
"B0FFF2K6P3","川沙中学南校","科教文化服务;学校;中学","141202","[]","川沙新镇平川路273号","121.690742","31.178546","121.68642083352645","31.180646453714257","[]","上海市","上海市","浦东新区"
"B00157HL2F","华东师范大学附属东昌中学南校张江校区","科教文化服务;学校;中学","141202","[]","张东路3001号","121.640506","31.189637","121.6362762373501","31.19182316683669","[]","上海市","上海市","浦东新区"
"B001577VXB","Shanghai Community International School","科教文化服务;学校;中学","141202","[]","周浦镇横桥路198号长宁国际学校","121.573701","31.108011","121.56949005039482","31.11026328096846","[]","上海市","上海市","浦东新区"
"B00156F3F6","上海市五三中学","科教文化服务;学校;中学","141202","[]","川沙镇东河浜路26号","121.706561","31.198495","121.70221284571002","31.200559645700835","021-58921166","上海市","上海市","浦东新区"
"B00155KVUD","上海市陆行中学南校","科教文化服务;学校;中学","141202","[]","金台路96号","121.585137","31.24875","121.58092750782767","31.250940754303475","021-50759765","上海市","上海市","浦东新区"
"B00155IT2N","上海市奉城高级中学","科教文化服务;学校;中学","141202","[]","城大路36号","121.645115","30.909186","121.64090107923208","30.9115236345696","021-57513988;021-57522587","上海市","上海市","奉贤区"
"B001557W0N","上海市坦直中学","科教文化服务;学校;中学","141202","[]","古恩路128号","121.644384","31.07214","121.64015784640951","31.07438313139044","021-68152448","上海市","上海市","浦东新区"
"B00154ZORJ","上海市建平实验中学","科教文化服务;学校;中学","141202","[]","枣庄路111号(近栖山路)","121.571568","31.259685","121.5673413287653","31.261859238438465","021-50384046","上海市","上海市","浦东新区"
"B00154LQ2K","上海市侨光中学","科教文化服务;学校;中学","141202","[]","川沙镇新德路463号(民贤路新德路)","121.694344","31.196178","121.69001509342559","31.19826335291476","021-58981710","上海市","上海市","浦东新区"
"B00154JY6L","上海市六团中学","科教文化服务;学校;中学","141202","[]","川六公路1565号","121.722194","31.15411","121.7178317301601","31.156177585121537","021-58590060","上海市","上海市","浦东新区"
"B00154DVBB","上海市香山中学","科教文化服务;学校;中学","141202","[]","灵山路1672弄36号","121.566849","31.238621","121.56261624165533","31.240798628670337","021-68561542","上海市","上海市","浦东新区"
"B00154DT8M","上海市陆行中学","科教文化服务;学校;中学","141202","[]","金桥路1288号","121.585906","31.25305","121.58169679137049","31.25523926487107","021-50716316;021-50596292","上海市","上海市","浦东新区"
"B00154DH2E","上海市北蔡中学北中校区","科教文化服务;学校;中学","141202","[]","北蔡镇北中路493号(北中路地铁站1号口步行380米)","121.562693","31.185066","121.55845688889548","31.187263195963496","021-50610801","上海市","上海市","浦东新区"
"B00154D8YQ","上海民办启能东方外国语学校","科教文化服务;学校;中学","141202","[]","顾唐路2000号","121.66283","31.226847","121.65855788061653","31.22897643918952","021-58586688","上海市","上海市","浦东新区"
"B001545EC1","上海市罗山中学","科教文化服务;学校;中学","141202","[]","博山东路41弄18号","121.558408","31.247389","121.55415782667143","31.24954964224984","021-58606280;021-58600629","上海市","上海市","浦东新区"
"B0015431D7","上海市浦东模范中学","科教文化服务;学校;中学","141202","[]","博兴路918号(近荷泽路)","121.592291","31.264613","121.58808496879631","31.266799654480984","021-68511535;021-68511995","上海市","上海市","浦东新区"
"B001537CB2","上海市长岛中学","科教文化服务;学校;中学","141202","[]","长岛路555号","121.582036","31.261585","121.57782255710599","31.263768172893062","021-58463098","上海市","上海市","浦东新区"
"B001537B2F","丰华高级中学","科教文化服务;学校;中学","141202","[]","凌河路420弄88号","121.600279","31.270926","121.59607469461783","31.273110434108016","021-50255479;021-50267290","上海市","上海市","浦东新区"
"B001508506","上海市江镇中学","科教文化服务;学校;中学","141202","[]","东亭路631号","121.754005","31.174953","121.7496346557259","31.17699534651496","021-68785217","上海市","上海市","浦东新区"
"B001508505","上海市黄楼中学","科教文化服务;学校;中学","141202","[]","栏学路375号","121.669718","31.165511","121.6654376726789","31.167657490726647","021-58941120","上海市","上海市","浦东新区"
"B0015084ED","上海市致远中学","科教文化服务;学校;中学","141202","[]","灵山路2100号","121.575483","31.243054","121.57126336535484","31.245239819880528","021-50763856;021-50761796","上海市","上海市","浦东新区"
"B0015071D0","上海市周浦育才学校","科教文化服务;学校;中学","141202","[]","瓦屑镇振兴路2号","121.65871","31.110248","121.65445540507659","31.112444773478522","021-58152857;021-58152154","上海市","上海市","浦东新区"
"B0015084FF","上海市川沙中学","科教文化服务;学校;中学","141202","[]","新川路324号","121.700805","31.19448","121.69646569313223","31.196555450558893","021-58981232;021-68650060","上海市","上海市","浦东新区"
"B00155IO9K","上海市实验学校附属光明学校","科教文化服务;学校;中学","141202","[]","祝桥镇南祝路5468号","121.757104","31.101934","121.75274158035772","31.10401589700213","021-58107783;021-58107790","上海市","上海市","浦东新区"
"B00152527D","上海市宣桥学校","科教文化服务;学校;中学","141202","[]","宣桥镇宣镇东路2号卫生室","121.702518","31.015775","121.69819105876161","31.017945857903264","021-58180320;021-58181154","上海市","上海市","浦东新区"
"B00155IONK","上海市奉贤区五四学校","科教文化服务;学校;中学","141202","[]","五四农场中港水闸路756号","121.738524","30.863088","121.73417745666643","30.865311113696535","[]","上海市","上海市","奉贤区"
"B00155EFB7","华东师范大学松江实验中学","科教文化服务;学校;中学","141202","[]","南青路100号","121.237729","31.035625","121.23331794754384","31.037748510642846","021-67739445;021-67739901","上海市","上海市","松江区"
"B0FFF00FPP","上海外国语大学松江外国语学校(中学部)","科教文化服务;学校;中学","141202","[]","梅家浜路1701号","121.22296","31.052691","121.21853709796642","31.05479413952107","[]","上海市","上海市","松江区"
"B00155DBBK","上海市三新学校","科教文化服务;学校;中学","141202","[]","方松街道三新北路300号","121.195509","31.026644","121.19104879497273","31.028725137742434","021-67810018","上海市","上海市","松江区"
"B00150A49F","上海市新农学校","科教文化服务;学校;中学","141202","[]","朱泾镇新农新中路63号","121.206731","30.895342","121.20230063508511","30.897518147847528","021-57340715","上海市","上海市","金山区"
"B00154D7ZE","上海市朱泾中学","科教文化服务;学校;中学","141202","[]","临源街828号","121.161709","30.900662","121.157192550982","30.902755645711203","021-57316297","上海市","上海市","金山区"
"B00156NPY4","上海松隐中学","科教文化服务;学校;中学","141202","[]","亭林镇松隐镇松育路100号","121.236683","30.893019","121.23228345821883","30.89522613895249","021-57381013","上海市","上海市","金山区"
"B0FFFA50B1","松江区华阳桥学校(北区)","科教文化服务;学校;中学","141202","[]","华阳街80号","121.282873","31.005703","121.27843944398793","31.007826405732267","021-57774047","上海市","上海市","松江区"
"B0FFHKWSE5","上海赫德双语学校","科教文化服务;学校;中学","141202","[]","茸北路336号","121.248162","31.040192","121.24375244247278","31.042315485819508","4000098089","上海市","上海市","松江区"
"B00156GGI5","松江区小昆山学校","科教文化服务;学校;中学","141202","[]","小昆山镇中德路1151号","121.131798","31.024821","121.12721972832405","31.0267931482068","[]","上海市","上海市","松江区"
"B001575183","包玉刚实验学校(松江校区)","科教文化服务;学校;中学","141202","[]","三新北路900弄1800号","121.191978","31.037279","121.1875104096696","31.039347935507173","021-61671999","上海市","上海市","松江区"
"B001557UW5","松江区张泽学校(南校区)","科教文化服务;学校;中学","141202","[]","叶榭镇滟东路39号","121.278909","30.926489","121.27448758202219","30.928663714628616","[]","上海市","上海市","松江区"
"B001557WPP","天马山学校","科教文化服务;学校;中学","141202","[]","云昆路266号","121.1446","31.067687","121.14003744995685","31.06965282046883","021-57661134","上海市","上海市","松江区"
"B00157HMF1","东华大学附属实验学校","科教文化服务;学校;中学","141202","[]","弘翔路300号","121.183856","31.035851","121.17937285769709","31.03790628097263","021-60109000;021-60109696","上海市","上海市","松江区"
"B001508536","松江民办茸一中学","科教文化服务;学校;中学","141202","[]","五昆路268号","121.244565","31.03265","121.24015595828091","31.034777426555248","021-57782659","上海市","上海市","松江区"
"B001557UV8","松江区五厍学校","科教文化服务;学校;中学","141202","[]","泖港镇中厍路151号5室","121.137721","30.938155","121.13315849444072","30.940186344611764","021-57878058","上海市","上海市","松江区"
"B0FFGDVLGV","上海市松江四中初级中学","科教文化服务;学校;中学","141202","[]","城置路29号","121.243633","31.11164","121.23921718888177","31.113722382975162","[]","上海市","上海市","松江区"
"B0G3LKCR76","上海市三新学校(东部校区)","科教文化服务;学校;中学","141202","[]","北翠路与谷阳北路交叉口东180米","121.236959","31.037019","121.23254750739041","31.039141345342163","[]","上海市","上海市","松江区"
"B0015583KB","新桥中学分校","科教文化服务;学校;中学","141202","[]","新南街39号","121.321399","31.061756","121.31688561108612","31.063784504515127","021-57641795","上海市","上海市","松江区"
"B0FFHPCT04","上海诺美学校","科教文化服务;学校;中学","141202","[]","莘庄镇淀南路159号(近疏影路)","121.351094","31.115773","121.34651053351702","31.117715985231175","021-32231766","上海市","上海市","闵行区"
"B00154D75W","天马山中学","科教文化服务;学校;中学","141202","[]","佘山镇","121.143547","31.068508","121.13898260854678","31.070471685404765","[]","上海市","上海市","松江区"
"B0FFIAPRDT","上海市吴迅中学高中部","科教文化服务;学校;中学","141202","[]","瑞和路578号","121.594861","31.087516","121.59067065393192","31.089792325444915","021-68180612","上海市","上海市","浦东新区"
"B00155FHTV","奉贤区塘外中学","科教文化服务;学校;中学","141202","[]","人民路42号","121.619411","30.902065","121.61522994962571","30.90444011018271","021-57175525","上海市","上海市","奉贤区"
"B0FFLH6639","世外教育附属临港外国语学校","科教文化服务;学校;中学","141202","[]","海湾镇万水路6668","121.745675","30.865132","121.7413280679378","30.867351691578882","021-57540760","上海市","上海市","奉贤区"
"B00154B450","浦东新区北蔡镇中界村村民学校","科教文化服务;学校;中学","141202","[]","北蔡镇中心路308号","121.569508","31.185351","121.56528420412135","31.187557590369643","[]","上海市","上海市","浦东新区"
"B0HDSS6VO8","上海诺思兰顿","科教文化服务;学校;中学","141202","[]","正旭路99号","121.746565","30.866802","121.74221805978608","30.869020580122292","021-57540762","上海市","上海市","奉贤区"
"B00154DOAL","上海市第二中学","科教文化服务;学校;中学","141202","[]","永康路200号","121.455261","31.210478","121.45068477270493","31.212383731774345","021-64726994","上海市","上海市","徐汇区"
"B0FFHBNOZK","松江区九亭第二中学分校","科教文化服务;学校;中学","141202","[]","九亭镇九新公路同利路28号","121.317299","31.109460","121.31279075200328","31.111469394686914","[]","上海市","上海市","松江区"
"B00155QL81","上海市松江区第四中学","科教文化服务;学校;中学","141202","[]","泗泾镇开江东路192弄11号","121.278391","31.113644","121.27395448894379","31.115710633581678","021-57613503","上海市","上海市","松江区"
"B001557USK","松江区车墩学校","科教文化服务;学校;中学","141202","[]","虬长路276号","121.30819","31.015558","121.30370957167659","31.01763762053202","021-57601386","上海市","上海市","松江区"
"B0FFGU8AUF","上海德威外籍人员子女学校(浦西)","科教文化服务;学校;中学","141202","[]","茜浦泾路2000号","121.33853","31.052532","121.3339786897877","31.054533196556044","021-33299398","上海市","上海市","闵行区"
"B00155LVO6","上海音乐学院附属安师实验中学","科教文化服务;学校;中学","141202","[]","武宁路48号(近耐克)(曹杨路地铁站8号口步行290米)","121.425312","31.238015","121.42067423070391","31.239858428142313","021-52901384;021-52901969","上海市","上海市","普陀区"
"B00154FGXB","上海市第三女子中学","科教文化服务;学校;中学","141202","[]","江苏路155号(江苏路地铁站5号口步行170米)","121.430814","31.222864","121.42618513146516","31.22472074333619","021-62526860","上海市","上海市","长宁区"
"B001556ZD0","古松学校","科教文化服务;学校;中学","141202","[]","石湖荡镇学府路201号","121.116968","30.984391","121.11237788666115","30.986371687283377","021-57752132","上海市","上海市","松江区"
"B0FFFA210Z","松江区洞泾学校","科教文化服务;学校;中学","141202","[]","蔡家浜东路751号","121.282553","31.084999","121.27811321503036","31.08707697300919","021-57772912;021-57672345","上海市","上海市","松江区"
"B0FFJ5KVT7","上海宏润博源学校","科教文化服务;学校;中学","141202","[]","课植园路178号","121.057873","31.115412","121.05331508968064","31.117346380783435","021-59261136","上海市","上海市","青浦区"
"B0FFGXEUMI","上海市长征中学高中部","科教文化服务;学校;中学","141202","[]","香樟路429号(丰庄地铁站2号口步行450米)","121.357201","31.238708","121.35259503218622","31.24057888481487","021-52681085","上海市","上海市","普陀区"
"B00155EHVH","上海市建平香梅中学","科教文化服务;学校;中学","141202","[]","东绣路463号","121.538465","31.208022","121.53416647000981","31.210159382853746","021-50598733","上海市","上海市","浦东新区"
"B0FFJHH7WK","上海市松江区佘山外国语实验学校","科教文化服务;学校;中学","141202","[]","贡嘎山路215号","121.205635","31.123423","121.20118371925072","31.125465262942015","[]","上海市","上海市","松江区"
"B0FFHIQU4D","斯代文森国际高中(闵行校区)","科教文化服务;学校;中学","141202","[]","光华路2660号","121.346565","31.057160","121.34199590611102","31.059143827061956","021-61558420","上海市","上海市","闵行区"
"B00154ZTEG","上海市马桥强恕学校","科教文化服务;学校;中学","141202","[]","北松公路2258号","121.366","31.030495","121.36139672805123","31.032463295449507","021-64092516","上海市","上海市","闵行区"
"B001554194","上海市文来中学初中部","科教文化服务;学校;中学","141202","[]","农南路66号","121.365504","31.149648","121.36089123425438","31.151550400557607","[]","上海市","上海市","闵行区"
"B0015556B1","上海市邬桥学校","科教文化服务;学校;中学","141202","[]","庄行镇大叶公路2658号","121.403041","30.956104","121.39841338124857","30.958089660314755","021-57401248","上海市","上海市","奉贤区"
"B00155QGKL","上海市闵行区鹤北初级中学","科教文化服务;学校;中学","141202","[]","瑞丽路385号(金平路地铁站1号口步行490米)","121.408437","31.008412","121.4038059043893","31.01036752525511","021-64632868","上海市","上海市","闵行区"
"B0FFJIN3N5","上海市实验学校南校","科教文化服务;学校;中学","141202","[]","云台路1801号(华夏西路地铁站3号口步行420米)","121.515778","31.14847","121.51141020225884","31.150576431247995","021-58808600","上海市","上海市","浦东新区"
"B0FFJH52DA","青浦区教师进修学院附属中学","科教文化服务;学校;中学","141202","[]","秀源路210号","121.156688","31.164194","121.15213923751718","31.16612773883702","[]","上海市","上海市","青浦区"
"B00157GH3T","上海师范大学附属中学闵行分校","科教文化服务;学校;中学","141202","[]","浦佳路91号","121.50892","31.068486","121.50453459955837","31.070616292934204","021-24090002","上海市","上海市","闵行区"
"B00156EG5P","上海视觉艺术学院附属高级中学","科教文化服务;学校;中学","141202","[]","万航渡路435号(武定路地铁站2号口步行260米)","121.436271","31.225215","121.43165097921772","31.227078198307","[]","上海市","上海市","静安区"
"B0015581J9","向明中学(浦江校区)","科教文化服务;学校;中学","141202","[]","[]","121.500489","31.073841","121.49607278971581","31.07594298493792","[]","上海市","上海市","闵行区"
"B00150BA2D","上海市闵行第三中学(华坪校区)","科教文化服务;学校;中学","141202","[]","华坪路110号","121.419355","31.000438","121.41473142758116","31.00240384141088","021-64356378","上海市","上海市","闵行区"
"B0FFJL8KPZ","上海音乐学院附属黄浦比乐中学","科教文化服务;学校;中学","141202","[]","肇周路420号","121.481133","31.211803","121.47663640354466","31.213774792800635","021-63747465","上海市","上海市","黄浦区"
"B00156O048","黄浦区教育学院附属中山学校","科教文化服务;学校;中学","141202","[]","鲁班路618号(近中山南一路)","121.477058","31.195359","121.47254902746363","31.197327257992228","021-63033922","上海市","上海市","黄浦区"
"B001557UVY","松江区叶榭育外中学","科教文化服务;学校;中学","141202","[]","官厅路13号","121.328519","30.949113","121.32399905213542","30.951194005402684","[]","上海市","上海市","松江区"
"B0FFIDQ1P7","上海市松江区泗泾实验学校","科教文化服务;学校;中学","141202","[]","方泗公路39号","121.273376","31.121982","121.26894480387797","31.124048867541823","021-67892679","上海市","上海市","松江区"
"B0FFHWWHJX","青浦世界外国语学校","科教文化服务;学校;中学","141202","[]","徐泾镇龙联路915号","121.281759","31.190247","121.27731143800513","31.19226982797498","021-69760860","上海市","上海市","青浦区"
"B0FFHE9HZU","上海闵行区万科双语学校","科教文化服务;学校;中学","141202","[]","七莘路3568号","121.344313","31.165057","121.33973940654937","31.166985711894682","021-24088825","上海市","上海市","闵行区"
"B0FFG8U8JV","上海市格致中学(德学路)","科教文化服务;学校;中学","141202","[]","奉浦社区学丰路66号","121.473451","30.953222","121.46895082394924","30.955315801972574","021-67157666","上海市","上海市","奉贤区"
"B001541E41","铜川学校","科教文化服务;学校;中学","141202","[]","真如镇街道北石路610弄28号(近铜川路)","121.39192","31.250311","121.38726944795447","31.252139509175972","021-62656301","上海市","上海市","普陀区"
"B001526CCF","上海市昆明学校总校","科教文化服务;学校;中学","141202","[]","打虎山路7号(鞍山新村地铁站3号口步行410米)","121.510166","31.269793","121.50576806206058","31.271824809730237","021-65035302","上海市","上海市","杨浦区"
"B00155QAJR","青浦区实验中学","科教文化服务;学校;中学","141202","[]","青赵公路1118号","121.095364","31.150741","121.09075482801708","31.15262031161186","021-39292659","上海市","上海市","青浦区"
"B00155C2AK","上海音乐学院附中","科教文化服务;学校;中学","141202","[]","东平路9号(近复兴中路)","121.449753","31.208151","121.44516299275394","31.210046150303178","[]","上海市","上海市","徐汇区"
"B0FFGFBHVN","上海市时代中学","科教文化服务;学校;中学","141202","[]","武定路431号","121.451081","31.234176","121.44649199535021","31.236061634090547","021-62534541","上海市","上海市","静安区"
"B0FFFNNSW6","上海市七宝中学教育集团文来中学高中部","科教文化服务;学校;中学","141202","[]","虹莘路2166号(虹莘路地铁站1号口步行340米)","121.382018","31.140401","121.3773844030033","31.142289830723332","[]","上海市","上海市","闵行区"
"B0FFFKE5SO","松江区九亭第二中学","科教文化服务;学校;中学","141202","[]","九亭镇涞亭南路1801号","121.345443","31.115737","121.340871242361","31.117689915999534","021-67861697","上海市","上海市","松江区"
"B00157GQN0","上海市市东中学","科教文化服务;学校;中学","141202","[]","霍山路520号(大连路地铁站2号口步行390米)","121.517285","31.257499","121.51291328675521","31.25955694345873","021-65419737","上海市","上海市","杨浦区"
"B001558BER","上海市震旦外国语中学","科教文化服务;学校;中学","141202","[]","鲁班路369号(近斜土路)(鲁班路地铁站1号口步行430米)","121.476637","31.202524","121.47212600973128","31.20448757796485","021-62533232","上海市","上海市","黄浦区"
"B00155KC6T","虹口区密云学校","科教文化服务;学校;中学","141202","[]","天宝西路242弄40号","121.494886","31.273861","121.49043260076225","31.275845302812314","021-65217403","上海市","上海市","虹口区"
"B001540D90","朝阳中学","科教文化服务;学校;中学","141202","[]","虬江路723-7(宝山路地铁站1号口步行230米)","121.477787","31.253323","121.47327549654905","31.25526621499708","021-56634585","上海市","上海市","静安区"
"B00156COV5","向明中学","科教文化服务;学校;中学","141202","[]","瑞金一路100号(淮海中路地铁站3号口步行90米)","121.462908","31.22003","121.45835232970222","31.221949081558087","[]","上海市","上海市","黄浦区"
"B0FFFPLZMP","上海帕丁顿双语学校","科教文化服务;学校;中学","141202","[]","南桥镇奉浦八字桥路686号","121.45678","30.936352","121.45223140023874","30.93841397055809","021-67100588","上海市","上海市","奉贤区"
"B00156DZVR","松江区新桥学校","科教文化服务;学校;中学","141202","[]","新桥镇新站路128号","121.318796","31.059297","121.31428868034622","31.06133183138438","021-57645877;021-57641795","上海市","上海市","松江区"
"B00155QYF4","兴塔中学","科教文化服务;学校;中学","141202","[]","兴新路1300号","121.074444","30.870645","121.06987683695246","30.872698096783434","021-57361180","上海市","上海市","金山区"
"B0FFG3YGB5","上海师范大学附属中学","科教文化服务;学校;中学","141202","[]","浦星公路388号","121.493857","31.124677","121.48941259676664","31.126730806090748","021-58395328","上海市","上海市","浦东新区"
"B0015269B6","虹桥中学","科教文化服务;学校;中学","141202","[]","虹桥路2222弄41号(龙溪路地铁站3号口步行490米)","121.380875","31.191369","121.3762381175656","31.193232580158725","021-62627647","上海市","上海市","长宁区"
"B00155LJIQ","古华中学","科教文化服务;学校;中学","141202","[]","曙光路89号","121.46667","30.914104","121.46215179857427","30.91620305117446","021-57180970","上海市","上海市","奉贤区"
"B00157I05O","上海延安实验初级中学","科教文化服务;学校;中学","141202","[]","蒲淞南路51号(北新泾地铁站2号口步行300米)","121.374803","31.215336","121.37017103074639","31.217193923789797","021-62398362","上海市","上海市","长宁区"
"B0IG76LWRJ","上海马桥强恕中学","科教文化服务;学校;中学","141202","[]","北松公路2258号","121.365996","31.030505","121.36139273358404","31.032473295067007","[]","上海市","上海市","闵行区"
"B0FFF00IFV","上海市上南中学","科教文化服务;学校;中学","141202","[]","华绣路260号","121.528374","31.183652","121.52404602929917","31.18577561019123","021-58836040;021-58475643","上海市","上海市","浦东新区"
"B00154H05J","虹口区教育学院附属中学","科教文化服务;学校;中学","141202","[]","祥德路274弄1-220号","121.489235","31.273369","121.4847614291431","31.275336669467706","021-65222926","上海市","上海市","虹口区"
"B00152BE5E","上海市育人中学","科教文化服务;学校;中学","141202","[]","三新路15号","121.507586","31.137777","121.50318997623243","31.13986495253854","021-58415059;021-58411506","上海市","上海市","浦东新区"
"B00156ENGX","青浦区实验中学(东校区)","科教文化服务;学校;中学","141202","[]","华青南路98弄28号","121.135876","31.138934","121.13129357384885","31.140847376130022","021-69238829","上海市","上海市","青浦区"
"B00151356B","上海市格致中学","科教文化服务;学校;中学","141202","[]","广西北路66号","121.479977","31.23096","121.47547481692091","31.23291948915742","021-63510228","上海市","上海市","黄浦区"
"B00155ISDE","上海市南洋模范初级中学","科教文化服务;学校;中学","141202","[]","天平路200号(交通大学地铁站1号口步行220米)","121.436991","31.200978","121.43237438944585","31.20285385872144","021-62825154","上海市","上海市","徐汇区"
"B001571IXG","上海市康健外国语实验中学","科教文化服务;学校;中学","141202","[]","百花街15号","121.412734","31.152781","121.4080923212605","31.154656936525715","021-54189165;021-54181432","上海市","上海市","徐汇区"
"B00155N1IM","浦江第二中学","科教文化服务;学校;中学","141202","[]","江协路151号","121.533066","31.057579","121.52876355891115","31.059783321856948","021-64110747","上海市","上海市","闵行区"
"B0FFJRT1NF","上海市闵行中学-闵行汇点高中","科教文化服务;学校;中学","141202","[]","江川东路980号上海市民办文绮中学","121.423804","31.006259","121.41918452926927","31.008225241293157","[]","上海市","上海市","闵行区"
"B00151FA15","上海市敬业中学","科教文化服务;学校;中学","141202","[]","蓬莱路345号","121.488074","31.217075","121.48360112663292","31.21906446304529","021-63685200","上海市","上海市","黄浦区"
"B00156ECJC","上海德法学校","科教文化服务;学校;中学","141202","[]","诸光路339弄30号","121.307565","31.162166","121.30307342315403","31.164164878476356","021-39760555","上海市","上海市","青浦区"
"B00156GE3T","上海市毓华学校","科教文化服务;学校;中学","141202","[]","青松路493号","121.120134","31.136256","121.11553336315733","31.138152763257224","021-59722827","上海市","上海市","青浦区"
"B001559FD9","华东师范大学附属枫泾中学","科教文化服务;学校;中学","141202","[]","枫泾镇白牛路188号","121.023443","30.891045","121.01900362966462","30.89319066818408","021-57355646;021-57351315","上海市","上海市","金山区"
"B001556W7Y","奉贤区庄行学校","科教文化服务;学校;中学","141202","[]","庄行镇中学路15号","121.398905","30.904307","121.39428207598553","30.906323555848108","021-57466309","上海市","上海市","奉贤区"
"B0FFH9VAUK","上海市第二初级中学","科教文化服务;学校;中学","141202","[]","永嘉路388号","121.455886","31.208354","121.4513116207036","31.21026214560586","021-64743458;021-64726994","上海市","上海市","徐汇区"
"B0FFJGX8IZ","金山区隆平路311号金山健桥中学","科教文化服务;学校;中学","141202","[]","隆平路311号","121.344851","30.720146","121.34031428054374","30.72232475335755","021-57942956;021-57950992","上海市","上海市","金山区"
"B0FFHG8YJS","上海市江宁学校(石泉校区)","科教文化服务;学校;中学","141202","[]","石泉路95号","121.428255","31.251690","121.42361990028404","31.253530505973938","[]","上海市","上海市","普陀区"
"B0FFGK16DX","上海市洋泾中学南校分校","科教文化服务;学校;中学","141202","[]","三彩路157","121.499412","31.12378","121.49498767814032","31.125850967929484","021-58817478","上海市","上海市","浦东新区"
"B00156DECH","上海市闵行区上虹中学","科教文化服务;学校;中学","141202","[]","环镇南路110号","121.388637","31.174699","121.38399497465034","31.17656527920781","021-64060524","上海市","上海市","闵行区"
"B00155LBB6","上海市实验学校","科教文化服务;学校;中学","141202","[]","东明路300号(近齐河路)","121.508735","31.182761","121.50433930078306","31.184829035874497","021-50860888","上海市","上海市","浦东新区"
"B00155HD0T","凯慧中学","科教文化服务;学校;中学","141202","[]","大连路1530号(控江路附近)","121.50547","31.272218","121.50105497690032","31.274234783874928","021-65047200","上海市","上海市","杨浦区"
"B00155GG7M","上海市龙茗中学","科教文化服务;学校;中学","141202","[]","虹莘路1888号(虹莘路地铁站2号口步行260米)","121.382222","31.136819","121.37758851625486","31.13870957247252","021-34173566","上海市","上海市","闵行区"
"B00152DE87","上海市泸定中学","科教文化服务;学校;中学","141202","[]","中山西路911弄1号","121.414006","31.201483","121.40936084600084","31.203334901777655","021-62194509","上海市","上海市","长宁区"
"B0FFJH8P54","上海市新世纪中学","科教文化服务;学校;中学","141202","[]","玉屏南路158号","121.409753","31.213217","121.4051046156176","31.215061440725986","021-62086703","上海市","上海市","长宁区"
"B0FFH9B7HY","华东师范大学附属外国语实验学校","科教文化服务;学校;中学","141202","[]","白玉路150号(曹杨路地铁站2号口步行260米)","121.418798","31.234948","121.41415357776394","31.236787085817664","021-62351663","上海市","上海市","普陀区"
"B0FFFWFB9R","上海市沙田学校","科教文化服务;学校;中学","141202","[]","兰溪路51号(近梅岭南路)","121.412231","31.238075","121.40758161840229","31.239908800387205","021-62576748;021-62576739","上海市","上海市","普陀区"
"B0FFFQC7ID","董恒甫高级中学","科教文化服务;学校;中学","141202","[]","中漕路36号(上海体育馆地铁站8号口步行420米)","121.434594","31.183702","121.42997464304163","31.185582858627097","021-64646863","上海市","上海市","徐汇区"
"B001579JH6","上海市珠峰中学","科教文化服务;学校;中学","141202","[]","江桥镇鹤友路500号(金运路地铁站2号口步行420米)","121.321472","31.238008","121.31694336776104","31.23994435298372","021-31271008","上海市","上海市","嘉定区"
"B0FFHOFT98","明和中医学校","科教文化服务;学校;中学","141202","[]","祁连山路地铁站4号口旁","121.375459","31.271976","121.37082127246705","31.27380776135994","[]","上海市","上海市","普陀区"
"B001523BCB","奉贤区实验中学(贝港校区)","科教文化服务;学校;中学","141202","[]","南桥镇秀南路99号","121.445857","30.909119","121.44128364943914","30.911174338649182","021-57416552","上海市","上海市","奉贤区"
"B00152EDB7","上海私立永昌学校","科教文化服务;学校;中学","141202","[]","绍兴路5号甲(打浦桥地铁站4号口步行460米)","121.465243","31.209454","121.4606951843921","31.21138392558389","021-64332621;021-64332291","上海市","上海市","黄浦区"
"B001537089","上海市位育中学","科教文化服务;学校;中学","141202","[]","位育路1号","121.442881","31.119736","121.43828304411316","31.121663668822084","021-64960808","上海市","上海市","徐汇区"
"B00156D0IA","徐汇区教育学院附属实验中学","科教文化服务;学校;中学","141202","[]","上中路50号","121.43278","31.137623","121.42816161792342","31.139525226162416","021-64101802","上海市","上海市","徐汇区"
"B0015503L7","协和双语学校(虹桥校区)","科教文化服务;学校;中学","141202","[]","虹泉路999号","121.375577","31.169053","121.37094807420405","31.17093297938864","021-34310090","上海市","上海市","闵行区"
"B0FFKR1SS2","上海美高学校","科教文化服务;学校;中学","141202","[]","北松公路1250号","121.384044","31.033148","121.37941781357075","31.03509535026933","021-62968877","上海市","上海市","闵行区"
"B0FFGBWXAM","上海戏剧学院闵行附属学校","科教文化服务;学校;中学","141202","[]","浦江镇闵瑞路501号","121.535227","31.048968","121.53093196770332","31.051182765172808","021-34092353","上海市","上海市","闵行区"
"B0FFF5VJ5T","上海市鞍山初级中学","科教文化服务;学校;中学","141202","[]","控江路2077号","121.507597","31.270304","121.50318980240834","31.272327951930876","021-65036249","上海市","上海市","杨浦区"
"B00156O6G9","同济大学附属七一中学","科教文化服务;学校;中学","141202","[]","余姚路818号(武宁路地铁站5A口步行240米)","121.430615","31.230099","121.42598520062785","31.231952123142115","[]","上海市","上海市","静安区"
"B00155KCAO","华东师大一附中(虹关路)","科教文化服务;学校;中学","141202","[]","虹关路88号(近瑞虹路)","121.501627","31.265719","121.4971986412336","31.267727011999483","021-55951538;021-65033319","上海市","上海市","虹口区"
"B00154DDX0","上海市宜川中学","科教文化服务;学校;中学","141202","[]","华阴路101号(近骊山路)","121.444828","31.261793","121.44022194149751","31.263654067692105","021-56091823;021-56099550","上海市","上海市","普陀区"
"B001538A9F","上海市东林中学","科教文化服务;学校;中学","141202","[]","浦三路2855号(浦三路地铁站1号口步行340米)","121.538712","31.152557","121.53441883138098","31.154722932029298","021-50858709","上海市","上海市","浦东新区"
"B0015286C2","娄山中学(宁锦小区南)","科教文化服务;学校;中学","141202","[]","玉屏南路640号(近古北路)","121.400668","31.21555","121.39601790545615","31.217392189777843","021-62598206","上海市","上海市","长宁区"
"B0FFHFZ9W8","上海市金山初级中学","科教文化服务;学校;中学","141202","[]","龙皓路821","121.341673","30.754496","121.33714019540682","30.75666291323131","021-67223888","上海市","上海市","金山区"
"B0FFFLJ807","交大七宝南洋美国高中","科教文化服务;学校;中学","141202","[]","七莘路2678上海交通大学七宝校区","121.357495","31.148242","121.35289631306277","31.15015699957235","[]","上海市","上海市","闵行区"
"B0FFG7GUXR","上海市第二中学(梅陇校区)","科教文化服务;学校;中学","141202","[]","务本路351(景西路地铁站4号口步行240米)","121.416437","31.101071","121.4118022673404","31.10297690675882","021-54770580","上海市","上海市","闵行区"
"B0FFG0O99I","上外静安外国语中学","科教文化服务;学校;中学","141202","[]","北京西路653号(南京西路地铁站11号口步行380米)","121.462179","31.232782","121.45762009963309","31.234693360556484","021-62537161","上海市","上海市","静安区"
"B00156EM2T","上海市青浦高级中学","科教文化服务;学校;中学","141202","[]","公园东路1100号","121.141429","31.15539","121.13685367803969","31.15730277575493","021-69719038;021-69719058","上海市","上海市","青浦区"
"B00155G9N1","上海市古美高级中学","科教文化服务;学校;中学","141202","[]","龙茗路1628号","121.383976","31.149618","121.37933978316413","31.151500388155245","021-51198921","上海市","上海市","闵行区"
"B00155L4M7","上海培佳双语学校","科教文化服务;学校;中学","141202","[]","宜川路351弄70号","121.440134","31.265483","121.43551778331525","31.26733425788492","021-56611143","上海市","上海市","普陀区"
"B00156NWN2","上海市民办万源城协和双语学校","科教文化服务;学校;中学","141202","[]","平吉路509号","121.396071","31.144406","121.3914279670745","31.146284833665035","021-64980188","上海市","上海市","闵行区"
"B0FFHKUV7T","上海交大南洋中学国际部","科教文化服务;学校;中学","141202","[]","松隐大街100号","121.243992","30.891315","121.23959473358838","30.893525694501044","[]","上海市","上海市","金山区"
"B00156D6GJ","西林中学","科教文化服务;学校;中学","141202","[]","健康南路40","121.159721","30.892018","121.15520135295834","30.89411306720733","021-57325836","上海市","上海市","金山区"
"B00156ZOAD","上海金山区枫叶学校","科教文化服务;学校;中学","141202","[]","枫泾镇枫叶街1号","121.021308","30.919434","121.01687360326804","30.921569014063806","021-60127777","上海市","上海市","金山区"
"B00155QP1K","上海市邬桥学校北校区","科教文化服务;学校;中学","141202","[]","汇中路165号","121.398818","30.960722","121.39419022597728","30.962705188142746","021-57401261","上海市","上海市","奉贤区"
"B0FFG7GUXR","上海市第二中学(梅陇校区)","科教文化服务;学校;中学","141202","[]","务本路351(景西路地铁站4号口步行240米)","121.416437","31.101071","121.4118022673404","31.10297690675882","021-54770580","上海市","上海市","闵行区"
"B00155GNLV","上海协和双语高级中学(古北校区)","科教文化服务;学校;中学","141202","[]","红松东路248号","121.406455","31.189352","121.40180764453478","31.191207233230124","021-51753030","上海市","上海市","闵行区"
"B0FFF00283","上海闵行区教育学院附属中学","科教文化服务;学校;中学","141202","[]","东闸路189号","121.364091","31.117302","121.3594833498022","31.119223731565004","021-54171350","上海市","上海市","闵行区"
"B00156E1A9","上海市闵行区七宝第三中学","科教文化服务;学校;中学","141202","[]","宝南路88号","121.362758","31.154592","121.35814937091119","31.15649568807451","021-64786662","上海市","上海市","闵行区"
"B001551ND7","弘文学校","科教文化服务;学校;中学","141202","[]","南桥镇正环路389号","121.481133","30.909533","121.47666213399445","30.911674123037074","021-67187829","上海市","上海市","奉贤区"
"B00150855C","上海领科双语学校","科教文化服务;学校;中学","141202","[]","九亭镇涞亭南路559号","121.34159","31.129971","121.33702531487921","31.13192319864001","021-67635828","上海市","上海市","松江区"
"B001540384","上海市文建中学","科教文化服务;学校;中学","141202","[]","浦建路211弄9号(蓝村路地铁站3号口步行410米)","121.52594","31.209657","121.52160183713188","31.211761248353618","021-28282344;021-50906078","上海市","上海市","浦东新区"
"B00155L4AZ","松江区佘山学校","科教文化服务;学校;中学","141202","[]","佘山镇桃源街道桃源路325号","121.181537","31.097966","121.17704396446616","31.09998159879655","021-57658823","上海市","上海市","松江区"
"B00156GR0F","叶榭学校","科教文化服务;学校;中学","141202","[]","叶榭镇新源路258号","121.315637","30.937122","121.31114709695252","30.939234520342026","021-57801280","上海市","上海市","松江区"
"B00150854A","金山中学","科教文化服务;学校;中学","141202","[]","众益街899号","121.160997","30.881626","121.15648075171902","30.883729480421657","[]","上海市","上海市","金山区"
"B0FFFZKRBL","华东理工大学附属中学","科教文化服务;学校;中学","141202","[]","梅陇十村76号","121.42453","31.131897","121.41990050573615","31.13379261455838","021-64530830","上海市","上海市","徐汇区"
"B0FFFAK38C","上海市吴泾中学","科教文化服务;学校;中学","141202","[]","龙吴路5455-2附近","121.466096","31.045622","121.46156482723005","31.047642048065196","[]","上海市","上海市","闵行区"
"B0015534AD","七宝中学","科教文化服务;学校;中学","141202","[]","农南路22号","121.367628","31.150928","121.36301176457887","31.152826868895094","021-64592100","上海市","上海市","闵行区"
"B0FFF5U8ZU","上海视觉艺术学院附属高级中学","科教文化服务;学校;中学","141202","[]","华山路433号","121.444611","31.217111","121.44000834084889","31.218991933902757","[]","上海市","上海市","静安区"
"B00157I2XE","上海市紫竹园中学","科教文化服务;学校;中学","141202","[]","罗秀路99号","121.449701","31.133844","121.44511728876688","31.135776983759555","021-54189165;021-54194228","上海市","上海市","徐汇区"
"B00155CHHV","莘松中学春申校区","科教文化服务;学校;中学","141202","[]","伟业路229号","121.404795","31.106286","121.40015455435001","31.10818474301757","021-54373591","上海市","上海市","闵行区"
"B00155AQYP","育辛高级中学","科教文化服务;学校;中学","141202","[]","浦三路385号(临沂新村地铁站2号口步行310米)","121.515258","31.192808","121.51088464136278","31.194890246094822","[]","上海市","上海市","浦东新区"
"B00157HTKV","上海民办进才外国语中学","科教文化服务;学校;中学","141202","[]","东建路785号","121.541477","31.202902","121.53718767409588","31.205048999933652","021-50456677;021-58995579","上海市","上海市","浦东新区"
"B001531417","上海市延河中学","科教文化服务;学校;中学","141202","[]","新村路99号(宜川路口)","121.437119","31.267502","121.43249684340184","31.26934758022354","021-56072227","上海市","上海市","普陀区"
"B001557UTE","松江区洞泾镇同诚中学","科教文化服务;学校;中学","141202","[]","洞泾镇育才路167号","121.26752","31.080008","121.26309813822296","31.082102671265716","021-57672345","上海市","上海市","松江区"
"B001547A50","上海市建设初级中学","科教文化服务;学校;中学","141202","[]","三星路55号","121.540112","31.263451","121.53581367378139","31.265566989373","021-65433440","上海市","上海市","杨浦区"
"B00157I08O","复旦中学西部校区","科教文化服务;学校;中学","141202","[]","淞虹路475号(淞虹路地铁站3号口步行470米)","121.360226","31.215609","121.3556165066553","31.217485934819763","[]","上海市","上海市","长宁区"
"B00156GSSO","上海市民办华育中学","科教文化服务;学校;中学","141202","[]","龙吟路99号","121.453983","31.116737","121.44941150665586","31.11868825118477","021-55350909","上海市","上海市","徐汇区"
"B0FFJXVCAL","上海市亭新中学(红阳校区)","科教文化服务;学校;中学","141202","[]","亭林镇红梓路1150号","121.329713","30.900855","121.32519444586077","30.90296224368747","021-57232421;021-57232422","上海市","上海市","金山区"
"B0FFJPZ7EV","上海·青浦协和双语学校","科教文化服务;学校;中学","141202","[]","业锦路32号","121.235236","31.127794","121.23081605060517","31.12986436268724","[]","上海市","上海市","青浦区"
"B0FFJ4LRCM","华东理工大学附属闵行科技高级中学","科教文化服务;学校;中学","141202","[]","银康路820号","121.371941","31.019897","121.36732976483373","31.021863917602303","021-64306098","上海市","上海市","闵行区"
"B0FFHOJISE","上海闵行区民办德闳学校","科教文化服务;学校;中学","141202","[]","曙光路1935号","121.338603","31.052791","121.33405150590573","31.054791910709824","021-33299458","上海市","上海市","闵行区"
"B0FFG14TZ5","上海体育学院附属金山亭林中学","科教文化服务;学校;中学","141202","[]","金展路2555号","121.316376","30.880037","121.31188929349068","30.882181751889465","021-67230063","上海市","上海市","金山区"
"B0FFF5QE1W","上海市吕巷中学","科教文化服务;学校;中学","141202","[]","吕巷镇田阳路4081号","121.177229","30.82455","121.17275041065557","30.826716658869767","021-57371342","上海市","上海市","金山区"
"B001557SAV","沈巷中学","科教文化服务;学校;中学","141202","[]","朱家角镇泖溪路200号","121.062134","31.073947","121.05757060008405","31.075897350902988","021-59833206","上海市","上海市","青浦区"
"B00154G7VV","上海市干巷学校","科教文化服务;学校;中学","141202","[]","吕巷镇干巷新溪街35号","121.239881","30.82653","121.23548822350719","30.82877681961788","[]","上海市","上海市","金山区"
"B00150852D","青浦区颜安中学","科教文化服务;学校;中学","141202","[]","练汇街228","121.046335","31.004927","121.04181504142765","31.006947432649216","021-59257702;021-59257701","上海市","上海市","青浦区"
"B0015582LV","上海市民办协和双语尚音学校","科教文化服务;学校;中学","141202","[]","龙茗路185号","121.389356","31.126585","121.38471768517758","31.128476149835254","021-54177228","上海市","上海市","闵行区"
"B00156EKMY","上海市闵行区浦江第一中学","科教文化服务;学校;中学","141202","[]","江园路489号","121.49855","31.0735","121.49412682086623","31.075596347239372","021-34301639","上海市","上海市","闵行区"
"B00155933X","上海市长桥中学","科教文化服务;学校;中学","141202","[]","龙临路20号(罗秀路地铁站1号口步行350米)","121.438939","31.130473","121.43433215745351","31.13238819045952","021-64767085","上海市","上海市","徐汇区"
"B00155CHFW","上海市莘光学校","科教文化服务;学校;中学","141202","[]","雅致路18号","121.383587","31.116856","121.37895397372078","31.118756274890853","021-64120799;021-64121356","上海市","上海市","闵行区"
"B00155L4O9","民立中学(分部)","科教文化服务;学校;中学","141202","[]","威海路870号(南京西路地铁站12号口步行480米)","121.455147","31.224974","121.450569217802","31.226872616634747","021-62475183","上海市","上海市","静安区"
"B0FFHPZDNI","上海市嘉定区华江中学","科教文化服务;学校;中学","141202","[]","嘉洲路80号","121.343093","31.26918","121.33851304637086","31.27106171891952","[]","上海市","上海市","嘉定区"
"B0FFHYIGXI","上海理工大学附属普陀实验学校","科教文化服务;学校;中学","141202","[]","光新路182弄81号","121.433569","31.253547","121.42894184507509","31.255393444487368","[]","上海市","上海市","普陀区"
"B0FFGAQW55","晋元高级中学附属学校","科教文化服务;学校;中学","141202","[]","真金路512号","121.406239","31.272412","121.40158435373222","31.27422891562782","021-66092832","上海市","上海市","普陀区"
"B00155NEQG","上海建青实验学校","科教文化服务;学校;中学","141202","[]","古羊路900号(姚虹路地铁站3号口步行450米)","121.400466","31.192526","121.39581792645562","31.194379373336137","021-62199139;021-62670311","上海市","上海市","长宁区"
"B001550V7N","同济大学附属存志学校","科教文化服务;学校;中学","141202","[]","许昌路1474号","121.514457","31.270838","121.5100742301791","31.272881998529495","021-65038842;021-65036236","上海市","上海市","杨浦区"
"B00154GMIQ","上海市海南中学","科教文化服务;学校;中学","141202","[]","塘沽路484号(近百官街)","121.485917","31.24847","121.48143385061343","31.250438689941877","021-63241574","上海市","上海市","虹口区"
"B001539BAC","上海市闵行区颛桥中学","科教文化服务;学校;中学","141202","[]","老沪闵路3112号(颛桥地铁站1号口步行410米)","121.403279","31.070437","121.39864150644837","31.072355758255316","021-64890301","上海市","上海市","闵行区"
"B00154DTZP","清流中学","科教文化服务;学校;中学","141202","[]","上南路801号(耀华路地铁站2号口步行180米)","121.495454","31.177592","121.49101084118112","31.179622805581626","021-58837482","上海市","上海市","浦东新区"
"B0FFKBRJCV","上海市青浦区第二中学","科教文化服务;学校;中学","141202","[]","青浦区南淀浦河路699号","121.149572","31.14156","121.14501183922354","31.143493178755488","021-59731107;021-59732020","上海市","上海市","青浦区"
"B001508540","上海市闵行第四中学","科教文化服务;学校;中学","141202","[]","景谷路9号","121.40424","31.013067","121.39960755924206","31.01501905338202","021-64301758;021-64301756","上海市","上海市","闵行区"
"B00156TH70","上海市三林中学北校凌兆路校区","科教文化服务;学校;中学","141202","[]","三林镇凌兆路648号","121.503356","31.144247","121.49894419090396","31.146318842662446","021-50630594","上海市","上海市","浦东新区"
"B00156GNTG","上海外国语大学尚阳外国语学校","科教文化服务;学校;中学","141202","[]","祁连山南路2671号(近金鼎路)","121.373728","31.260579","121.3690934914687","31.262417535419075","021-62123197","上海市","上海市","普陀区"
"B00155QH29","上海视觉艺术学院附属高级中学","科教文化服务;学校;中学","141202","[]","巨鹿路700号","121.453003","31.220912","121.44841998706755","31.222807850160116","[]","上海市","上海市","静安区"
"B00152CB46","上海市奉贤区致远高级中学(南桥秀龙路)","科教文化服务;学校;中学","141202","[]","秀龙路115号","121.459322","30.907586","121.45478284964506","30.909670842571952","021-57412262;021-50763856","上海市","上海市","奉贤区"
"B00150853B","上海市漕泾中学","科教文化服务;学校;中学","141202","[]","漕泾镇中一西路218号","121.411191","30.796682","121.40657926349115","30.798761605243584","[]","上海市","上海市","金山区"
"B00155CIIH","上海市闵行第五中学","科教文化服务;学校;中学","141202","[]","兰坪路301弄2号","121.41869","31.007","121.4140652626675","31.008961480391044","021-54717427","上海市","上海市","闵行区"
"B00154DNHT","华东师范大学附属天山学校","科教文化服务;学校;中学","141202","[]","天中路155号","121.388727","31.216709","121.38408125897556","31.218554568135783","021-62598336;021-62333585","上海市","上海市","长宁区"
"B00152C35A","市八初级中学","科教文化服务;学校;中学","141202","[]","复兴东路123号(近盐码头路)","121.500223","31.221722","121.4957933027893","31.223745572149355","021-63304596","上海市","上海市","黄浦区"
"B0FFL6210O","上海市新虹桥中学","科教文化服务;学校;中学","141202","[]","中山西路1245弄16号","121.418917","31.194414","121.41427621358623","31.19627246188825","[]","上海市","上海市","长宁区"
"B0FFL18XN2","上海市杨浦区教育学院附属中学","科教文化服务;学校;中学","141202","[]","江浦路1322号(江浦路地铁站6号口步行130米)","121.520642","31.2719","121.51628069588736","31.27396135411462","[]","上海市","上海市","杨浦区"
"B0FFKRQQB4","上海市民办福山正达外国语学校","科教文化服务;学校;中学","141202","[]","历城路10号(耀华路地铁站出入口步行360米)","121.491565","31.177292","121.48710792164572","31.179311331519088","021-58807255;021-58836808","上海市","上海市","浦东新区"
"B0FFK4GMFZ","上海上师初级中学","科教文化服务;学校;中学","141202","[]","浦佳路91号","121.509943","31.067919","121.50556130555822","31.07005265536888","[]","上海市","上海市","闵行区"
"B0FFJ1YEVC","上海市徐汇中学(南校区)","科教文化服务;学校;中学","141202","[]","华发路68号","121.454468","31.127816","121.44989681660383","31.129762287144256","[]","上海市","上海市","徐汇区"
"B0FFIV3C7U","华东师范大学第二附属中学前滩学校","科教文化服务;学校;中学","141202","[]","芋秋路205号","121.472245","31.147517","121.46772434042305","31.14949648601918","021-58809235","上海市","上海市","浦东新区"
"B0FFIE4ROV","同济黄浦设计创意中学","科教文化服务;学校;中学","141202","[]","四川中路599号","121.485974","31.241898","121.48149161260294","31.2438698036775","[]","上海市","上海市","黄浦区"
"B0FFIATIJP","清河湾中学","科教文化服务;学校;中学","141202","[]","曹盈路1389号","121.092532","31.167047","121.08792252445093","31.168918382035596","[]","上海市","上海市","青浦区"
"B0FFHOIS2H","上海民办南模中学","科教文化服务;学校;中学","141202","[]","天钥桥路1118号","121.445834","31.176883","121.44123754201829","31.17878595011813","[]","上海市","上海市","徐汇区"
"B0FFHJTMZG","上海市北海中学(管弄路分校)","科教文化服务;学校;中学","141202","[]","管弄路51号(近华池路)","121.426851","31.257101","121.42221353052442","31.258937547387244","021-62147566","上海市","上海市","普陀区"
"B0FFHJ98OO","上海市惠民中学","科教文化服务;学校;中学","141202","[]","怀德路568号(平凉路地铁站4号口旁)","121.525784","31.258856","121.52144118329369","31.260937268304104","021-55271188","上海市","上海市","杨浦区"
"B0FFHHLFN4","上海市燎原双语学校","科教文化服务;学校;中学","141202","[]","平阳路150号","121.407078","31.144302","121.40243471718439","31.146180511158516","021-64806128;021-54934667","上海市","上海市","闵行区"
"B0FFHAJ8BL","上海蒙山中学南校","科教文化服务;学校;中学","141202","[]","石化七村759号","121.34723","30.714765","121.34268873185358","30.7169421877354","021-57958501;021-57958516","上海市","上海市","金山区"
"B0FFH86NVA","上海市第五十四中学(复兴中路校区)","科教文化服务;学校;中学","141202","[]","复兴中路1464号(常熟路地铁站7号口步行350米)","121.449114","31.210600","121.44452224148","31.212492685230593","021-64373403","上海市","上海市","徐汇区"
"B0FFGZJICS","上海中医药大学附属浦江高级中学","科教文化服务;学校;中学","141202","[]","浦连路86号","121.544884","31.057964","121.54061626397193","31.060196426278353","021-64110745","上海市","上海市","闵行区"
"B0FFGSGNEC","上海市杨浦初级中学","科教文化服务;学校;中学","141202","[]","飞虹路1001号(通北路)","121.514378","31.267488","121.50999523450606","31.269533191648442","021-65149100;021-65152838","上海市","上海市","杨浦区"
"B0FFGPGF7U","上海市朱家角高级中学(新疆部)","科教文化服务;学校;中学","141202","[]","西湖新村珠扬路朱家角高中","121.042854","31.104046","121.0383352960837","31.10601739492386","[]","上海市","上海市","青浦区"
"B0FFGLMAH9","上海市金盟学校","科教文化服务;学校;中学","141202","[]","荔浦路135弄38号","121.340128","30.708434","121.33560246597463","30.71062722752757","021-57938296","上海市","上海市","金山区"
"B0FFGJO0S4","上海市静安区南阳学校","科教文化服务;学校;中学","141202","[]","长乐路672弄34号","121.453195","31.219521","121.44861259963885","31.221417917548322","021-54030317","上海市","上海市","静安区"
"B0FFGGEI2F","上海民办位育中学","科教文化服务;学校;中学","141202","[]","临江路28号","121.458518","31.153053","121.45395556474683","31.154994998519733","021-64858228","上海市","上海市","徐汇区"
"B0FFGE8L98","上海市上海中学-上海中学国际部","科教文化服务;学校;中学","141202","[]","百色路989号","121.437920","31.141513","121.4333102658199","31.143420661723603","[]","上海市","上海市","徐汇区"
"B0FFGBBY94","上海市建设初级中学-东部","科教文化服务;学校;中学","141202","[]","三星路上海市建设初中北侧约30米","121.540666","31.263893","121.53636924416485","31.266010105091635","[]","上海市","上海市","杨浦区"
"B0FFGBBTS7","上海市育人中学(懿行路校区)","科教文化服务;学校;中学","141202","[]","三林镇懿行路990号","121.512482","31.122938","121.50810471734438","31.12504846490088","021-68411293","上海市","上海市","浦东新区"
"B0FFGAR37B","上海市同凯中学","科教文化服务;学校;中学","141202","[]","金山卫镇卫清东路2638对面","121.361952","30.735274","121.35738074937227","30.737416783480008","[]","上海市","上海市","金山区"
"B0FFG7032O","上海外国语大学闵行外国语中学","科教文化服务;学校;中学","141202","[]","华翔路3260号","121.304419","31.219898","121.29992903105021","31.22187371582839","021-64650208","上海市","上海市","闵行区"
"B0FFG69Q9F","华东模范中学东校区","科教文化服务;学校;中学","141202","[]","富民路43号(静安寺地铁站8号口步行160米)","121.450962","31.221593","121.44637378991362","31.223484230579057","021-62473989","上海市","上海市","静安区"
"B0FFFP30DC","上海市文建中学分校区","科教文化服务;学校;中学","141202","[]","塘桥路445号(塘桥路徐家弄路)","121.519409","31.211414","121.51504854755663","31.213499153968748","021-50906078","上海市","上海市","浦东新区"
"B0FFFBZR9H","上海市中国中学高中部","科教文化服务;学校;中学","141202","[]","钦州南路85号","121.42893","31.160346","121.42430379074627","31.16223136923131","021-64517723","上海市","上海市","徐汇区"
"B001570KKH","位育中学-国际部","科教文化服务;学校;中学","141202","[]","位育路1号","121.444726","31.118179","121.44013215396653","31.120110846251414","021-64960808","上海市","上海市","徐汇区"
"B00156PNXA","同济大学第二附属中学","科教文化服务;学校;中学","141202","[]","长寿路街道胶州路1006号(亚新生活广场对面)","121.435020","31.239503","121.43039652967123","31.2413577785174","[]","上海市","上海市","普陀区"
"B00156OATT","上海市洵阳中学","科教文化服务;学校;中学","141202","[]","旬阳路41号","121.4256","31.251781","121.42096138932945","31.253618550317746","021-52911233;021-62241102","上海市","上海市","普陀区"
"B00156O7EP","市东教育小区","科教文化服务;学校;中学","141202","[]","霍山路荆州路42号","121.517349","31.257732","121.51297749042622","31.25979002628574","[]","上海市","上海市","杨浦区"
"B00156O1C0","上海师范大学附属第二实验学校","科教文化服务;学校;中学","141202","[]","南石二路50号","121.404473","31.245654","121.39982038379505","31.24748232058705","[]","上海市","上海市","普陀区"
"B00156NY5S","上海市教育科学研究院附属中学","科教文化服务;学校;中学","141202","[]","长阳路965号(江浦公园地铁站3号口步行170米)","121.521821","31.264201","121.51746437991132","31.266268961754506","[]","上海市","上海市","杨浦区"
"B00156GH0H","上海市曹杨二中附属江桥实验中学","科教文化服务;学校;中学","141202","[]","江桥镇靖远路1358号","121.321707","31.256002","121.3171762905746","31.257929872629603","021-69116784;021-69156629","上海市","上海市","嘉定区"
"B00156ENAX","上海市第四中学","科教文化服务;学校;中学","141202","[]","宛平南路149号","121.447235","31.194951","121.44264017336411","31.196847592797337","021-64684264","上海市","上海市","徐汇区"
"B00156EL4X","白鹤中学","科教文化服务;学校;中学","141202","[]","老白石公路160号","121.135132","31.254426","121.13053855189102","31.25628183588126","021-59741139","上海市","上海市","青浦区"
"B00156E3WH","徐泾中学(京华路)","科教文化服务;学校;中学","141202","[]","徐泾镇京华路128号","121.276477","31.169918","121.2720381373003","31.171956674438746","021-59760656","上海市","上海市","青浦区"
"B00156DB17","上海市甘泉外国语中学(甘泉路)","科教文化服务;学校;中学","141202","[]","甘泉路80号","121.435033","31.264515","121.43040737635955","31.2663587478323","[]","上海市","上海市","普陀区"
"B00156DADZ","上海理工大学附属储能中学","科教文化服务;学校;中学","141202","[]","重庆北路270号(威海路重庆北路)","121.469293","31.228274","121.46475602231308","31.230205456307747","[]","上海市","上海市","黄浦区"
"B001508551","崇明区东门中学(江山校区)","科教文化服务;学校;中学","141202","[]","城桥镇湄洲路388号(湄洲路一江山路)","121.411206","31.626061","121.40652201505758","31.627803396575956","021-59615608","上海市","上海市","崇明区"
"B001508554","嘉定区启良中学","科教文化服务;学校;中学","141202","[]","启良路62号","121.253028","31.388537","121.2485882327544","31.390499171121448","021-59532449","上海市","上海市","嘉定区"
"B0H6HOJKLZ","宏达中学","科教文化服务;学校;中学","141202","[]","宏海公路2号","121.375957","31.675756","121.37128320885094","31.677512491214188","[]","上海市","上海市","崇明区"
"B00157GQAI","嘉定区迎园中学","科教文化服务;学校;中学","141202","[]","倪家浜路88号","121.281461","31.393535","121.27699654977022","31.39547728679248","021-69976007","上海市","上海市","嘉定区"
"B00155D4XN","上海市嘉定区中光高级中学","科教文化服务;学校;中学","141202","[]","塔城路257号","121.259178","31.384903","121.25473613542339","31.386864724317277","021-69990188;021-69992107","上海市","上海市","嘉定区"
"B00155FHOL","崇明区实验中学(宏达校区)","科教文化服务;学校;中学","141202","[]","宏海路2号","121.376328","31.676496","121.3716536871504","31.678252143580746","[]","上海市","上海市","崇明区"
"B0G2TA2JAF","上海市崇明区庙镇学校","科教文化服务;学校;中学","141202","[]","庙镇宏海公路2026号","121.346554","31.716158","121.34192764245128","31.717960550221598","021-59361736","上海市","上海市","崇明区"
"B0FFLNWQPW","上海天华英澳美国际学校","科教文化服务;学校;中学","141202","[]","胜辛北路1661号","121.204696","31.409373","121.2002189045919","31.411293858383004","021-39966299","上海市","上海市","嘉定区"
"B001508414","嘉定区徐行中学","科教文化服务;学校;中学","141202","[]","徐行镇新建一路2215号(近澄浏公路)","121.269406","31.413052","121.26495416828583","31.415000260072485","021-59559270","上海市","上海市","嘉定区"
"B0FFFCP7QS","美兰湖中学","科教文化服务;学校;中学","141202","[]","美诺路150号","121.359732","31.405932","121.35510683925527","31.40773767563699","[]","上海市","上海市","宝山区"
"B00156GHV1","上海市嘉定区朱桥学校","科教文化服务;学校;中学","141202","[]","嘉定工业区","121.192634","31.408354","121.18813602692599","31.410255731223454","021-59968950;021-59968912","上海市","上海市","嘉定区"
"B0FFG95HDR","嘉定区练川实验学校","科教文化服务;学校;中学","141202","[]","墅沟路600号","121.266758","31.378512","121.26231149047813","31.380471836372276","021-59997292","上海市","上海市","嘉定区"
"B0015451A7","城桥中学","科教文化服务;学校;中学","141202","[]","崇明西门路498号","121.396061","31.630973","121.39137530293492","31.63271455482339","021-59611084","上海市","上海市","崇明区"
"B001508418","上海市嘉定一中","科教文化服务;学校;中学","141202","[]","嘉行公路701号","121.25248","31.405823","121.2480388950543","31.407780382490852","021-69983668","上海市","上海市","嘉定区"
"B0FFF49XU3","上海市嘉定民办斌心学校","科教文化服务;学校;中学","141202","[]","徐行镇红星路937号","121.31889","31.428231","121.31435082033042","31.4301049274027","021-59940232;021-31117869","上海市","上海市","嘉定区"
"B001570MAU","崇明区凌云中学","科教文化服务;学校;中学","141202","[]","城桥镇北门路98号","121.400534","31.628363","121.39584766385431","31.63010374971446","021-59612894;021-69614494","上海市","上海市","崇明区"
"B0FFHOOPCQ","崇明区培成学校","科教文化服务;学校;中学","141202","[]","滧星中路与镇中路交叉路口往西约120米","121.440257","31.659964","121.43560647820472","31.66173721567357","[]","上海市","上海市","崇明区"
"B0FFGBBJNM","上海市宝山区鹿鸣学校","科教文化服务;学校;中学","141202","[]","顾村镇菊联路260号","121.35588","31.343898","121.35126739149108","31.345728803275925","021-36553611","上海市","上海市","宝山区"
"B001551TRD","怀少学校","科教文化服务;学校;中学","141202","[]","古猗园路718号(近裕丰路)","121.311456","31.298699","121.3069444306104","31.300628154543258","021-59175736","上海市","上海市","嘉定区"
"B00154ZJ3N","复旦实验中学","科教文化服务;学校;中学","141202","[]","安波路151号","121.537737","31.304009","121.53342826485668","31.306102654795527","021-65512410","上海市","上海市","杨浦区"
"B00154N21N","上海市思源中学","科教文化服务;学校;中学","141202","[]","[]","121.534545","31.319179","121.53022527691815","31.321258961197337","021-65323256","上海市","上海市","杨浦区"
"B001542308","上海市广中学校","科教文化服务;学校;中学","141202","[]","水电路365号","121.475376","31.276086","121.470854512047","31.27801273369473","021-56304689;021-56970081","上海市","上海市","虹口区"
"B001533ACB","上海市交通学校","科教文化服务;学校;中学|科教文化服务;学校;高等院校","141202|141201","[]","呼兰路883号","121.441416","31.34246","121.43679566706254","31.344283536634375","021-56996296;021-56996297","上海市","上海市","宝山区"
"B001515EC0","上海市北虹初级中学","科教文化服务;学校;中学","141202","[]","水电路285号(近广中路)","121.475258","31.274816","121.47073623179459","31.276742939976625","021-56988137","上海市","上海市","虹口区"
"B00150A14B","上海市嘉定区南翔中学","科教文化服务;学校;中学","141202","[]","南翔镇德园路758号","121.306944","31.299583","121.3024419834109","31.3015198194374","021-59129269;021-59121290","上海市","上海市","嘉定区"
"B00150841D","上海市虎林中学(虎林路)","科教文化服务;学校;中学","141202","[]","虎林路565号","121.456754","31.340135","121.45217054900012","31.341989988894447","021-60195050","上海市","上海市","宝山区"
"B0FFFEXZ96","上海外国语大学附属外国语学校东校","科教文化服务;学校;中学","141202","[]","天宝路1115号(四平路地铁站4号口步行400米)","121.499449","31.274757","121.49501199415333","31.27675463092923","021-63575018","上海市","上海市","虹口区"
"B00154FWNF","上海市丰镇中学","科教文化服务;学校;中学","141202","[]","丰镇路12号(池沟路丰镇路)","121.478497","31.305194","121.47398342941385","31.307117710577078","021-65421657;021-65447651","上海市","上海市","虹口区"
"B001549D33","上海市嘉定二中","科教文化服务;学校;中学","141202","[]","南翔镇德华路388号","121.310886","31.295508","121.30637593799102","31.297439445832644","[]","上海市","上海市","嘉定区"
"B00150840F","嘉一联合中学","科教文化服务;学校;中学","141202","[]","棋盘路1580","121.251217","31.403315","121.24677636973794","31.405273171806105","021-69900508","上海市","上海市","嘉定区"
"B00156EG0J","崇明区东门中学城东校区","科教文化服务;学校;中学","141202","[]","聚训北路东门","121.460355","31.614253","121.45575768062244","31.6160666330917","021-59694897","上海市","上海市","崇明区"
"B00156GVFA","上海市杨泰实验学校","科教文化服务;学校;中学","141202","[]","杨行镇杨鑫路388号曹燕华乒乓球学校","121.440003","31.366499","121.43537772441792","31.36831218379652","021-56801843","上海市","上海市","宝山区"
"B00156GR04","上海师范大学附属经纬实验学校","科教文化服务;学校;中学","141202","[]","大场镇纬地路155号","121.401394","31.325694","121.3967342491052","31.32748963411058","021-36121015","上海市","上海市","宝山区"
"B00155QKPA","上海市铁岭中学","科教文化服务;学校;中学","141202","[]","鞍山路300号(鞍山路鞍山支路)","121.510448","31.279313","121.50605026389131","31.28134165094982","021-65139100","上海市","上海市","杨浦区"
"B001554E6W","上海市迅行中学","科教文化服务;学校;中学","141202","[]","玉田路211号(近曲阳路)","121.49369","31.278688","121.48923188882429","31.28066670551071","021-65558282","上海市","上海市","虹口区"
"B00154B115","上海体育学院附属中学","科教文化服务;学校;中学","141202","[]","周家嘴路4220号","121.55132","31.283494","121.54705030231675","31.28562602187955","021-65671642","上海市","上海市","杨浦区"
"B001524F83","上海市控江中学","科教文化服务;学校;中学","141202","[]","双阳路388号(近控江路)","121.532723","31.279117","121.52840095773918","31.281208092305693","021-65180500","上海市","上海市","杨浦区"
"B001570LHR","上海市彭浦第四中学","科教文化服务;学校;中学","141202","[]","闻喜路1056号(彭浦新村地铁站4号口步行430米)","121.445648","31.308665","121.44103969230734","31.310508453081727","021-66243419","上海市","上海市","静安区"
"B001512621","上海市扬子中学","科教文化服务;学校;中学","141202","[]","城桥镇北门路58号","121.402554","31.62725","121.3978677080146","31.628990672984386","021-59620026;021-69611995","上海市","上海市","崇明区"
"B0FFHEDAOS","崇明区建设中学","科教文化服务;学校;中学","141202","[]","建设公路2166号","121.456057","31.663471","121.45144343033822","31.665275373341498","021-59331187","上海市","上海市","崇明区"
"B00156DYWY","上海民办华曜嘉定初级中学","科教文化服务;学校;中学","141202","[]","嘉定工业区嘉定新城中心区宝塔路1166号","121.251652","31.341342","121.24721656194129","31.343319385845913","021-59102531","上海市","上海市","嘉定区"
"B00154D8WF","宝山中学","科教文化服务;学校;中学","141202","[]","盘古路247弄20号","121.488481","31.412065","121.48399286214304","31.41398268913191","021-56691582;021-56692144","上海市","上海市","宝山区"
"B00150841C","上海市吴淞第二中学","科教文化服务;学校;中学","141202","[]","长江路860弄1号","121.48398","31.345259","121.47948178673524","31.347183763649213","021-56141801","上海市","上海市","宝山区"
"B00152B2E3","上海市高境三中","科教文化服务;学校;中学","141202","[]","国权北路468号(殷高路附近)","121.494778","31.318994","121.49032035881827","31.32096007811041","021-55031646","上海市","上海市","宝山区"
"B00155KS6U","华东师范大学宝山实验学校","科教文化服务;学校;中学","141202","[]","长临路1218号(近长江西路)","121.43189","31.328479","121.42725359572044","31.33029305772548","021-33875700;021-33875800","上海市","上海市","宝山区"
"B00154XCR2","上海外国语大学嘉定外国语学校","科教文化服务;学校;中学","141202","[]","墨玉北路888号","121.162264","31.325959","121.15771232209667","31.32783083716702","021-59565995","上海市","上海市","嘉定区"
"B00155LLAU","上海音乐学院实验学校","科教文化服务;学校;中学","141202","[]","新江湾城殷行路政和路359号","121.511384","31.327624","121.50698551010039","31.32963662186632","021-55250543;021-55250541","上海市","上海市","杨浦区"
"B00154BC1E","上海市吴淞初级中学","科教文化服务;学校;中学","141202","[]","同泰北路222号","121.493095","31.379502","121.48862612944343","31.381442603348624","021-56174818","上海市","上海市","宝山区"
"B0015500RX","上海市桃浦中学","科教文化服务;学校;中学","141202","[]","红棉路286号(红棉路绿杨路)","121.351881","31.282712","121.34728152380717","31.284572555550774","021-66271344;021-66273734","上海市","上海市","普陀区"
"B00155LGBY","上海市海滨第二中学","科教文化服务;学校;中学","141202","[]","水产路海滨五村10号","121.498506","31.384216","121.49405624325671","31.386171418262485","021-56163655","上海市","上海市","宝山区"
"B001508552","上海市闸北第八中学","科教文化服务;学校;中学","141202","[]","场中路3000号","121.436772","31.302212","121.43214618634191","31.304042861046877","021-66243030","上海市","上海市","静安区"
"B00155KUI0","上海市中原中学","科教文化服务;学校;中学","141202","[]","开鲁六村50号(近殷行路)","121.531026","31.327544","121.52669450557907","31.32961183701276","021-65233663","上海市","上海市","杨浦区"
"B001554Q3H","嘉定区马陆育才联合中学","科教文化服务;学校;中学","141202","[]","马路镇育英街355号","121.279557","31.324244","121.27510107907884","31.32621100024166","021-59156237;021-59156825","上海市","上海市","嘉定区"
"B001552PPV","罗店中学","科教文化服务;学校;中学","141202","[]","罗新路707号","121.347838","31.426423","121.34323430662707","31.428243052446806","021-56860611;021-56863091","上海市","上海市","宝山区"
"B001549A7B","同济大学实验学校","科教文化服务;学校;中学","141202","[]","五角场街道武东路295号","121.492206","31.303385","121.48774045713297","31.30534933407673","021-55603666;021-55397263","上海市","上海市","杨浦区"
"B0HBTX3M75","新疆班高中","科教文化服务;学校;中学","141202","[]","真新街道嘉行公路701号嘉定一中","121.254468","31.406514","121.25002628457926","31.408470904092816","[]","上海市","上海市","嘉定区"
"B001528689","行知实验中学","科教文化服务;学校;中学","141202","[]","行知路180号(行知路地铁站3号口步行410米)","121.418335","31.285555","121.41368575728023","31.28737181036291","021-66364930","上海市","上海市","宝山区"
"B00154EI9X","上海财经大学附属北郊高级中学","科教文化服务;学校;中学","141202","[]","曲阳路497号(近大连西路)","121.489509","31.275916","121.48503618444468","31.277883412232274","021-65222018","上海市","上海市","虹口区"
"B0FFFA5OA1","上海市宝山区馨家园学校","科教文化服务;学校;中学","141202","[]","顾村镇黄海路599号","121.370285","31.360146","121.36564658696503","31.361950680022193","021-56870271","上海市","上海市","宝山区"
"B0FFKXTR2G","上海外国语大学附属宝山双语学校","科教文化服务;学校;中学","141202","[]","金池路295号","121.342341","31.444993","121.33774742894317","31.446818614406848","[]","上海市","上海市","宝山区"
"B00155L2FP","上海市泗塘中学","科教文化服务;学校;中学","141202","[]","长江西路1888号(通河新村地铁站2号口步行480米)","121.44525","31.331939","121.44063877794227","31.333773081269694","021-36090330","上海市","上海市","宝山区"
"B00156NYF8","上海理工大学附属中学","科教文化服务;学校;中学","141202","[]","水丰路247号","121.538538","31.28559","121.53423319505526","31.287692938212217","021-65303979","上海市","上海市","杨浦区"
"B001554RG4","上海远东学校","科教文化服务;学校;中学","141202","[]","胜竹路1630号","121.260732","31.404354","121.25628761173269","31.406309594837868","021-69900168","上海市","上海市","嘉定区"
"B00155KRGL","上海市彭浦第三中学","科教文化服务;学校;中学","141202","[]","保德路831弄","121.450506","31.314181","121.44590863694522","31.31603190147785","021-56885953;021-56914574","上海市","上海市","静安区"
"B00155IQ7O","上海市复兴实验中学","科教文化服务;学校;中学","141202","[]","汶水东路690弄-73","121.474666","31.288953","121.4701410665127","31.29087248727683","021-65265350;021-65287049","上海市","上海市","虹口区"
"B00155L2ZM","交华中学","科教文化服务;学校;中学","141202","[]","大华三路99号(近大华路)","121.417674","31.276332","121.41302500247487","31.27815215619312","021-66366001","上海市","上海市","宝山区"
"B0FFLLHGXU","上海民办民一中学(城桥校区)","科教文化服务;学校;中学","141202","[]","城桥镇东门路557号上海开放大学崇明分校","121.404619","31.632276","121.39993242837444","31.634016801360545","[]","上海市","上海市","崇明区"
"B001503F40","上海市民办桃李园实验学校","科教文化服务;学校;中学","141202","[]","树屏路2065号","121.234958","31.397426","121.23051505049328","31.39938181021296","021-59529454","上海市","上海市","嘉定区"
"B00154DQPL","复旦大学附属中学","科教文化服务;学校;中学","141202","[]","国权路383号","121.505884","31.290313","121.50146893370541","31.292323556002383","021-65640560;021-65644127;021-65129602","上海市","上海市","杨浦区"
"B0FFIDDGN6","上海师范大学(附属经纬实验学校分校)","科教文化服务;学校;中学","141202","[]","涵青路128号","121.402319","31.331073","121.39765876887101","31.332866667045106","[]","上海市","上海市","宝山区"
"B00155R3QN","上海市高境第一中学","科教文化服务;学校;中学","141202","[]","殷高西路高境一村110号","121.478853","31.318795","121.47433946229562","31.320714546525277","021-56829890","上海市","上海市","宝山区"
"B0FFF9LOU3","上海大学附属嘉定区留云中学","科教文化服务;学校;中学","141202","[]","南翔镇云安路505号","121.321416","31.313883","121.31688097306142","31.31578778524075","021-69956809","上海市","上海市","嘉定区"
"B0FFICPXA8","上海市澄衷高级中学","科教文化服务;学校;中学","141202","[]","广粤路328号","121.467141","31.288625","121.46259213558363","31.29052459861361","[]","上海市","上海市","虹口区"
"B0FFGLNGCR","刘行新华实验学校","科教文化服务;学校;中学","141202","[]","菊太路1058号(近好日子大家园B区)","121.361589","31.347849","121.35696560935179","31.34966961044587","021-33792572","上海市","上海市","宝山区"
"B00155B4UB","上大附中实验学校","科教文化服务;学校;中学","141202","[]","真金路1098-1100","121.407901","31.282466","121.40324591359403","31.284279073254652","021-66394751;021-66391958","上海市","上海市","宝山区"
"B001557YFB","上海外国语大学第一实验学校","科教文化服务;学校;中学","141202","[]","西江湾路800号(赤峰路地铁站3号口步行420米)","121.480449","31.277341","121.47594444740352","31.279281443226427","021-65440592","上海市","上海市","虹口区"
"B00156GGV7","上海市宝山区陈伯吹中学","科教文化服务;学校;中学","141202","[]","罗太路352弄15号","121.337995","31.410979","121.33341397015332","31.412820948673957","021-66867597","上海市","上海市","宝山区"
"B0G2CRB05P","新民实验学校(过渡校区)","科教文化服务;学校;中学","141202","[]","月浦塘南街52号","121.429988","31.420339","121.42534065376607","31.42212234773074","[]","上海市","上海市","宝山区"
"B0G105E2GH","上海宝山世界外国语学校","科教文化服务;学校;中学","141202","[]","顾村镇云上路","121.383955","31.35942","121.37930051458189","31.36121115005","[]","上海市","上海市","宝山区"
"B0G0PREPA3","上海新和中学国际部","科教文化服务;学校;中学","141202","[]","原平路与晋城路交叉口北约60米","121.432832","31.281814","121.42820117313562","31.28364738310421","[]","上海市","上海市","静安区"
"B0FFM7S3YP","市北初级中学北校","科教文化服务;学校;中学","141202","[]","共和新路1873弄7号(延长路地铁站4号口步行230米)","121.455079","31.274606","121.45049674275987","31.276482442546023","021-56383198;021-56380654","上海市","上海市","静安区"
"B0FFLFAH8E","上海市第五中学","科教文化服务;学校;中学","141202","[]","三门路1126号","121.473342","31.309754","121.4688109470636","31.31166168440619","[]","上海市","上海市","虹口区"
"B0FFJCY9DY","上海大学附属宝山外国语学校","科教文化服务;学校;中学","141202","[]","铁山路2288号","121.447296","31.399358","121.44268355375492","31.401174489174572","021-56575237","上海市","上海市","宝山区"
"B0FFJ3UTC9","乐之中学","科教文化服务;学校;中学","141202","[]","菊泉街106号","121.375012","31.351438","121.37036790389081","31.353240071040744","[]","上海市","上海市","宝山区"
"B0FFI558XZ","上海市行知中学附属宝山实验学校","科教文化服务;学校;中学","141202","[]","锦秋路3000号","121.352843","31.318092","121.34823853835641","31.31993705546894","[]","上海市","上海市","宝山区"
"B0FFHMR4ES","同济中学北区","科教文化服务;学校;中学","141202","[]","政立路25","121.521751","31.308397","121.5173904128295","31.31044676240809","[]","上海市","上海市","杨浦区"
"B0FFHJ9IKT","上海市国和中学东校区","科教文化服务;学校;中学","141202","[]","中原路288号(市光路地铁站2号口步行180米)","121.532577","31.320913","121.52825098576484","31.32298729547568","021-65320544","上海市","上海市","杨浦区"
"B0FFHFS2ER","同济中学南区","科教文化服务;学校;中学","141202","[]","政立路20号(近江湾体育场)","121.522006","31.307568","121.51764635266285","31.309618797690955","[]","上海市","上海市","杨浦区"
"B0FFH4L4DJ","庙行实验学校","科教文化服务;学校;中学","141202","[]","场北路803号","121.419957","31.332755","121.41530510615696","31.334554958952197","021-56770860","上海市","上海市","宝山区"
"B0FFH3OW26","上海市行知外国语学校","科教文化服务;学校;中学","141202","[]","瑞丰路630号(祁华路地铁站3号口步行130米)","121.372308","31.323145","121.367669954061","31.324960067467842","021-36106707","上海市","上海市","宝山区"
"B0FFGTM5QR","上海市嘉定区苏民学校","科教文化服务;学校;中学","141202","[]","南华路318号","121.305978","31.293467","121.30147852419915","31.29540792012135","021-59122322","上海市","上海市","嘉定区"
"B0FFGCETG7","上海市江湾初级中学","科教文化服务;学校;中学","141202","[]","奎照路528弄16号","121.475672","31.299323","121.47114949142667","31.30124111852716","021-65258099;021-65258742","上海市","上海市","虹口区"
"B0FFGAPQCY","上实剑桥外国语中学","科教文化服务;学校;中学","141202","[]","延吉东路99号","121.544431","31.295976","121.54014219561132","31.29808844147942","021-55827023;021-65109758","上海市","上海市","杨浦区"
"B0FFG95FHH","上海市静安区大宁国际学校","科教文化服务;学校;中学","141202","[]","平型关路2166号","121.460073","31.301013","121.45550215146604","31.302890179050447","021-66252266","上海市","上海市","静安区"
"B0FFHJ9IKU","上海市国和中学西校区","科教文化服务;学校;中学","141202","[]","中原路289号(市光路地铁站3号口步行180米)","121.531365","31.320967","121.52703514068692","31.323038132986543","[]","上海市","上海市","杨浦区"
"B0FFHCW67D","顾村实验学校","科教文化服务;学校;中学","141202","[]","宝安公路1123号","121.386865","31.358734","121.38220818209406","31.36052331856913","021-66021193","上海市","上海市","宝山区"
"B0FFFWUUUH","上海市市光学校","科教文化服务;学校;中学","141202","[]","市光路1085号","121.53895","31.320683","121.53464347138282","31.322773258399604","021-65053832","上海市","上海市","杨浦区"
"B00156NXSH","复旦附中国际中文部","科教文化服务;学校;中学","141202","[]","政熙路2号(国权路地铁站4号口步行420米)","121.506454","31.289470","121.50204106043626","31.29148260150592","[]","上海市","上海市","杨浦区"
"B00156EEHL","上海市崇明区港西中学","科教文化服务;学校;中学","141202","[]","协西村协南180号","121.416196","31.692507","121.41150921871177","31.694254309578355","021-59671794","上海市","上海市","崇明区"
"B00156DB8X","上海理工大学附属初级中学","科教文化服务;学校;中学","141202","[]","图们路50号","121.545991","31.291953","121.54170678600154","31.2940704845979","021-55822270","上海市","上海市","杨浦区"
"B00155QTB0","上海市同洲模范学校","科教文化服务;学校;中学","141202","[]","岭南路1050弄1号(近共康东路)","121.456929","31.321555","121.45234763618996","31.32341705605014","021-56819143;021-56813079","上海市","上海市","宝山区"
"B00155NBEX","杨浦实验学校","科教文化服务;学校;中学","141202","[]","开鲁路40号","121.540996","31.325255","121.53669505690871","31.32734842512944","021-65231595","上海市","上海市","杨浦区"
"B00155N8L6","上海市崇明中学","科教文化服务;学校;中学","141202","[]","城桥镇鼓浪屿路801号","121.416447","31.640365","121.41176502834202","31.642110185398717","021-69672018","上海市","上海市","崇明区"
"B00155L33Q","上海市彭顺中学","科教文化服务;学校;中学","141202","[]","阳曲路667号","121.459451","31.316873","121.45487702057703","31.31874263125683","021-56910649","上海市","上海市","静安区"
"B00155KV1N","上海市风华初级中学(粤秀苑北)","科教文化服务;学校;中学","141202","[]","永和东路393号","121.458917","31.291952","121.45434368145857","31.29383005244623","021-56651155","上海市","上海市","静安区"
"B00155KAHV","新中高级中学","科教文化服务;学校;中学","141202","[]","原平路300","121.433362","31.284803","121.42873178067045","31.28663587996338","[]","上海市","上海市","静安区"
"B00155IK3N","上海市嘉定区方泰中学","科教文化服务;学校;中学","141202","[]","宝中路68号(近宝安公路)","121.208093","31.317734","121.2036289793559","31.319689130960196","021-59509253","上海市","上海市","嘉定区"
"B00155FOS9","兰生复旦中学世界路校区","科教文化服务;学校;中学","141202","[]","世界路8号","121.526481","31.3154","121.52213573492519","31.31746019202826","021-65561661","上海市","上海市","杨浦区"
"B00155FHLQ","上海市月浦中学","科教文化服务;学校;中学","141202","[]","四元路20弄78号(近春雷路)","121.43602","31.410928","121.4313833377646","31.412721989992377","[]","上海市","上海市","宝山区"
"B00155D9C1","上海民办和衷中学","科教文化服务;学校;中学","141202","[]","淞青路203号","121.497472","31.389931","121.49301801420836","31.39188163440218","021-56161266","上海市","上海市","宝山区"
"B00155BMTY","上海市吴淞中学","科教文化服务;学校;中学","141202","[]","泰和路99号","121.497006","31.376421","121.4925514857319","31.378374260081138","021-56172985","上海市","上海市","宝山区"
"B0015576YG","上海市嘉定区外冈中学","科教文化服务;学校;中学","141202","[]","恒飞路688号","121.157505","31.364256","121.15294061500731","31.366106028905236","021-39106043;021-39106920","上海市","上海市","嘉定区"
"B00154ZJ33","复旦大学第二附属中学","科教文化服务;学校;中学","141202","[]","政修路215号","121.504636","31.290648","121.50021640049167","31.29265468220397","021-65643392","上海市","上海市","杨浦区"
"B00154KBXV","上海市锦秋学校","科教文化服务;学校;中学","141202","[]","大场镇锦秋路999号","121.383915","31.320674","121.3792639382024","31.322478679045084","021-56133999;021-56137982","上海市","上海市","宝山区"
"B00154I2ZI","上海戬浜学校","科教文化服务;学校;中学","141202","[]","马陆镇嘉戬公路665号","121.292853","31.37999","121.2883715237682","31.381921470764034","021-59511835;021-59510217","上海市","上海市","嘉定区"
"B00154EDXV","盛桥中心校","科教文化服务;学校;中学","141202","[]","月浦镇古莲路271号","121.403306","31.450258","121.39863535352474","31.45201733435215","021-56152120","上海市","上海市","宝山区"
"B00154EDRJ","上海市求真中学","科教文化服务;学校;中学","141202","[]","通河一村5号","121.450392","31.336865","121.4457923856831","31.33870738926474","021-56992018","上海市","上海市","宝山区"
"B001536D7B","上海市同济第二初级中学","科教文化服务;学校;中学","141202","[]","政德东路185号","121.516618","31.309196","121.51223958540072","31.31123080417457","021-65580590","上海市","上海市","杨浦区"
"B001531642","同济初级中学","科教文化服务;学校;中学","141202","[]","政通路260号(近国定路)","121.510425","31.302366","121.50602522725075","31.3043852996214","021-65100528","上海市","上海市","杨浦区"
"B00152D828","嘉定区疁城实验学校(嘉定梅园路)","科教文化服务;学校;中学","141202","[]","梅园路30号","121.243369","31.378854","121.23893051555234","31.38081853338643","021-59529708","上海市","上海市","嘉定区"
"B00152AD8A","上海市包头中学","科教文化服务;学校;中学","141202","[]","包头路765弄11号","121.537872","31.322543","121.53356211329067","31.32462996590437","021-65320123","上海市","上海市","杨浦区"
"B00150FD3C","同济中学","科教文化服务;学校;中学","141202","[]","政立路20号","121.521871","31.308052","121.51751085145662","31.310102232309287","021-65482997","上海市","上海市","杨浦区"
"B00150D59D","上海市第二十五中学","科教文化服务;学校;中学","141202","[]","长阳路2400号(隆昌路路口)","121.545081","31.274598","121.54079576683903","31.27672061703163","021-65696001","上海市","上海市","杨浦区"
"B00150994A","上海市新杨中学","科教文化服务;学校;中学","141202","[]","雪松路458弄88号","121.354615","31.287136","121.35000975476336","31.28899018942732","[]","上海市","上海市","普陀区"
"B00150844A","上大附中","科教文化服务;学校;中学","141202","[]","上大路688号","121.391831","31.309565","121.38717532008899","31.311369040425998","021-66131598","上海市","上海市","宝山区"
"B001508415","上海市罗南中学","科教文化服务;学校;中学","141202","[]","富南路198号","121.363862","31.38803","121.35923121570903","31.389834618411232","021-56010251","上海市","上海市","宝山区"
"B001508412","上海市盛桥中学","科教文化服务;学校;中学","141202","[]","月浦镇石太路10号","121.402854","31.455586","121.39818286092809","31.457344191327195","021-56154732","上海市","上海市","宝山区"
"B001503C57","新海学校","科教文化服务;学校;中学","141202","[]","北沿公路3336号","121.299436","31.817827","121.29490442487543","31.81972983678581","[]","上海市","上海市","崇明区"
"B0FFJMQIHX","上海大学附属嘉定高级中学","科教文化服务;学校;中学","141202","[]","雅翔路180号","121.320335","31.313408","121.31580245954292","31.315315012165772","[]","上海市","上海市","嘉定区"
"B0FFGQG1OP","上海市教育学会宝山实验学校","科教文化服务;学校;中学","141202","[]","高境路371号","121.473478","31.322417","121.46894629812672","31.324320299465686","021-66610628","上海市","上海市","宝山区"
"B0FFFVAG58","上海市民办风范中学","科教文化服务;学校;中学","141202","[]","共和新路2800号(上海马戏城地铁站4号口步行470米)","121.450975","31.284324","121.44638138602204","31.286187622244302","021-66526661;021-56770097","上海市","上海市","静安区"
"B00156NT7A","上海民办杨浦实验学校(南区)","科教文化服务;学校;中学","141202","[]","开鲁路35号","121.541139","31.324456","121.53683853567347","31.32655005154701","[]","上海市","上海市","杨浦区"
"B00156E34E","上海市新北郊中学","科教文化服务;学校;中学","141202","[]","大连西路270弄25","121.486776","31.278982","121.4822932565839","31.2809400761777","021-65542623","上海市","上海市","虹口区"
"B00155BJAQ","上海外国语大学附属双语学校","科教文化服务;学校;中学","141202","[]","控江靖宇南路15号上海外国语大学","121.527763","31.280386","121.5234249082374","31.282463498763196","021-55805273;021-65191795","上海市","上海市","杨浦区"
"B00156DW3Q","华东师范大学附属杨行中学","科教文化服务;学校;中学","141202","[]","宝杨路2888号","121.448199","31.376584","121.4435906514928","31.378408905818993","021-56803487;021-56806213","上海市","上海市","宝山区"
"B00155LG9N","行知二中","科教文化服务;学校;中学","141202","[]","海江一路16号","121.489966","31.394055","121.48548468770932","31.395982015076275","021-56109134","上海市","上海市","宝山区"
"B00155I45Q","上海市控江初级中学","科教文化服务;学校;中学","141202","[]","永吉路118号(靖宇中路永吉路)","121.532136","31.286042","121.52781152443947","31.288128728283205","021-65300726","上海市","上海市","杨浦区"
"B00150F4F7","上海市宝山区高境镇第四中学","科教文化服务;学校;中学","141202","[]","岭南路1249弄288号","121.452633","31.324391","121.44804007335301","31.326242553578634","021-56812128","上海市","上海市","宝山区"
"B0015283D9","上海交通大学附属中学","科教文化服务;学校;中学","141202","[]","殷高路42号(吉浦路殷高路)","121.488913","31.319008","121.48443438043581","31.320956604230464","021-65911010;021-65912737;021-65911245","上海市","上海市","宝山区"
"B00154DRS0","上海市黄兴学校","科教文化服务;学校;中学","141202","[]","松花江路控江四村107号(黄兴路路口)","121.5249","31.285397","121.52055199938837","31.28746464212606","021-55123463","上海市","上海市","杨浦区"
"B00154CCF7","上海市彭浦中学","科教文化服务;学校;中学","141202","[]","三泉路604号","121.441912","31.312486","121.43729529941868","31.314321261520206","021-56421678","上海市","上海市","静安区"
"B001545176","上海市宝山实验学校","科教文化服务;学校;中学","141202","[]","友谊路120号","121.486208","31.404974","121.48171244558763","31.406886899951722","021-56694431","上海市","上海市","宝山区"
"B0HG6PDBZV","上海市向明初级中学附属崇明区江帆中学","科教文化服务;学校;中学","141202","[]","城桥镇绿海路701号","121.437688","31.630878","121.43303506996793","31.63264646099497","[]","上海市","上海市","崇明区"
