"id","name","type","typeCode","bizType","address","gcj02_lng","gcj02_lat","wgs84_lng","wgs84_lat","tel","provinceName","cityName","adName"
"B00155HJ1X","珠江生活广场","风景名胜;公园广场;城市广场","110105","tour","宁武路280号","121.544138","31.269314","121.53985061617497","31.271436752294935","[]","上海市","上海市","杨浦区"
"B00155HJGY","长阳商务休闲广场","风景名胜;公园广场;城市广场","110105","tour","长阳路1681号(宁国路地铁站3号口步行330米)","121.535264","31.270973","121.53095053927053","31.273073960818362","[]","上海市","上海市","杨浦区"
"B00155FO3H","上海站北广场","风景名胜;公园广场;城市广场","110105","tour","中兴路1688号(上海火车站地铁站6号口步行80米)","121.456759","31.251491","121.45218324292308","31.253381168741267","[]","上海市","上海市","静安区"
"B00155R1E2","上海站南广场","风景名胜;公园广场;城市广场","110105","tour","秣陵路303号(上海火车站地铁站2号口步行110米)","121.454556","31.247982","121.4499746701064","31.24986881101805","[]","上海市","上海市","静安区"
"B0FFFE0HWA","杨家浜休闲广场","风景名胜;公园广场;城市广场","110105","tour","控江路802弄小区(杨浦公园北100米)","121.535720","31.283490","121.53140688611124","31.285586882823015","[]","上海市","上海市","杨浦区"
"B0FFG4JZTG","东方明珠广播电视塔-城市广场","风景名胜;公园广场;城市广场","110105","tour","世纪大道1号(陆家嘴地铁站1号入口步行260米)","121.500271","31.239193","121.49583999190388","31.241208643435183","021-58791888","上海市","上海市","浦东新区"
"B00150D229","金杨文化广场","风景名胜;公园广场;城市广场","110105","tour","云山路1247、1267号","121.575676","31.245185","121.57145644767168","31.247370052443653","021-50705446","上海市","上海市","浦东新区"
"B00157917M","上海人民广场","风景名胜;公园广场;城市广场","110105","tour","人民大道120号","121.475164","31.228816","121.47064587471175","31.230763006198547","[]","上海市","上海市","黄浦区"
"B0G3ZPN574","四季广场-外广场","风景名胜;公园广场;城市广场","110105","tour","宁国路复地四季广场(宁国路地铁站4号口步行140米)","121.533817","31.267911","121.52949932230194","31.2700096064745","[]","上海市","上海市","杨浦区"
"B00155KI8E","音乐广场","风景名胜;公园广场;城市广场","110105","tour","延安东路523号(近西藏中路)上海城","121.478406","31.226529","121.47389887722714","31.228486099485504","[]","上海市","上海市","黄浦区"
"B00154DIBE","滨江大道-欢乐广场","风景名胜;公园广场;城市广场","110105","tour","富城路滨江公园","121.496713","31.235202","121.49226947798516","31.237208767381627","[]","上海市","上海市","浦东新区"
"B00155G6WO","外滩-陈毅广场","风景名胜;公园广场;城市广场","110105","tour","中山东一路外滩","121.490359","31.238999","121.48589236169556","31.240985046056228","[]","上海市","上海市","黄浦区"
"B00155HK15","长岛路休闲广场","风景名胜;公园广场;城市广场","110105","tour","长岛路521号","121.57967","31.262887","121.57545391276949","31.265067833062258","[]","上海市","上海市","浦东新区"
"B00155MRR6","莱阳市民广场","风景名胜;公园广场;城市广场","110105","tour","莱阳路817弄17号","121.581951","31.280085","121.57773593799386","31.28226028033909","[]","上海市","上海市","浦东新区"
"B00155KEZO","海上海无限可能广场","风景名胜;公园广场;城市广场","110105","tour","大连路990弄","121.507481","31.266859","121.50307367734318","31.26888407206481","[]","上海市","上海市","杨浦区"
"B0FFKHL1Q7","阿里社区体育广场","风景名胜;公园广场;城市广场","110105","tour","安图路延吉四村社区","121.538929","31.292939","121.53462473594693","31.295039907378108","[]","上海市","上海市","杨浦区"
"B0FFIOAHHP","博爱社区休闲广场","风景名胜;公园广场;城市广场","110105","tour","周家嘴路隧道景源佳苑北侧约30米","121.576178","31.288617","121.57195551096108","31.290783985934873","[]","上海市","上海市","浦东新区"
"B0FFKZZ6JE","龙珠广场下沉式广场","风景名胜;公园广场;城市广场","110105","tour","浦东大道2123号(歇浦路地铁站4号口步行360米)","121.550091","31.250334","121.54582098575422","31.252477718199362","[]","上海市","上海市","浦东新区"
"B0GU2BCL54","郡江国际未来生活体验馆","风景名胜;公园广场;城市广场|购物服务;购物相关场所;购物相关场所","110105|060000","tour","宁国路218号郡江国际大厦A座1115室","121.537467","31.265329","121.53316069852893","31.267437819486023","[]","上海市","上海市","杨浦区"
"B0FFFDP4MT","黄兴公园-中心广场","风景名胜;公园广场;城市广场","110105","tour","国顺东路369号黄兴公园内","121.529626","31.293238","121.525292892759","31.29531524542176","[]","上海市","上海市","杨浦区"
"B0FFM58O7C","爱心广场","风景名胜;公园广场;城市广场","110105","tour","金桥浦兴文化公园(巨峰路南)","121.591021","31.279105","121.58681311317906","31.281285196967065","[]","上海市","上海市","浦东新区"
"B00155E1LM","北蔡广场","风景名胜;公园广场;城市广场|生活服务;生活服务场所;生活服务场所","110105|070000","tour","莲安西路50号(北蔡地铁站2号口步行490米)","121.554571","31.181655","121.55031762474596","31.183840046393627","[]","上海市","上海市","浦东新区"
"B0FFKH9Z9V","大爱广场","风景名胜;公园广场;城市广场","110105","tour","东陆路705号浦兴文化公园","121.589849","31.278587","121.5856404776165","31.280767037729138","[]","上海市","上海市","浦东新区"
"B0FFILDNB2","外滩-金融广场","风景名胜;公园广场;城市广场","110105","tour","中山东一路(北至外白渡桥,南至十六铺码头)(外滩)","121.490680","31.236628","121.48621470758125","31.238616079047684","[]","上海市","上海市","黄浦区"
"B0FFGBDZTS","外滩金牛广场","风景名胜;公园广场;城市广场","110105","tour","福州路与中山东一路交汇处路东","121.490869","31.235581","121.4864044706905","31.23757011915905","[]","上海市","上海市","黄浦区"
"B0FFFDD60V","上海虹桥站西广场","风景名胜;公园广场;城市广场","110105","tour","申昆路1500号(虹桥火车站地铁站C出口步行80米)","121.317375","31.19387","121.31285936918444","31.195835023415253","[]","上海市","上海市","闵行区"
"B0FFFSNYVW","上海科技馆下沉式广场","风景名胜;公园广场;城市广场","110105","tour","世纪大道2000号上海科技馆","121.541625","31.218018","121.53733483528359","31.220158090735747","[]","上海市","上海市","浦东新区"
"B00157HTME","市民中心广场","风景名胜;公园广场;城市广场","110105","tour","万安街与高行街交叉口东北180米","121.610657","31.297081","121.60644876124445","31.299251220940448","[]","上海市","上海市","浦东新区"
"B001507C88","博乐广场","风景名胜;公园广场;城市广场","110105","tour","嘉定镇","121.252135","31.384096","121.2476958239207","31.38605957759542","[]","上海市","上海市","嘉定区"
"B0FFF5QXQO","世纪公园-观星广场","风景名胜;公园广场;城市广场","110105","tour","花木路1159号(花木路地铁站5号口步行420米)","121.559987","31.214486","121.55574293508938","31.216664492289784","[]","上海市","上海市","浦东新区"
"B0G30PIPLN","尚悦街西街-入口广场","风景名胜;公园广场;城市广场","110105","tour","银城路与即墨路交叉路口往西北约100米(陆家嘴滨江金融城)尚悦街西街","121.510875","31.242219","121.50648193030864","31.24426498618502","[]","上海市","上海市","浦东新区"
"B0FFF6XTM4","世纪广场(南京路步行街)","风景名胜;公园广场;城市广场","110105","tour","南京东路587号(南京东路地铁站4号口步行330米)","121.479688","31.235308","121.47518446179889","31.237264669987756","[]","上海市","上海市","黄浦区"
"B0FFL04LJK","船台广场","风景名胜;公园广场;城市广场","110105","tour","东岸绿道浦东保洁公司","121.508805","31.244295","121.50440434617936","31.246333909741537","[]","上海市","上海市","浦东新区"
"B0FFKXKS08","殿前广场","风景名胜;公园广场;城市广场","110105","tour","方浜中路249号上海城隍庙","121.492473","31.225700","121.48801504467542","31.22769846095445","[]","上海市","上海市","黄浦区"
"B0H121CXLW","景观小广场","风景名胜;公园广场;城市广场","110105","tour","军工路2000号共青国家森林公园八仙花主题花园","121.550533","31.319917","121.54625829333851","31.322033200032482","[]","上海市","上海市","杨浦区"
"B0GR1LZLWP","海江国际金融广场","风景名胜;公园广场;城市广场","110105","tour","东大名路与海门路交叉口西南20米","121.509082","31.252073","121.50468168084443","31.25410926776405","[]","上海市","上海市","虹口区"
"B0G0DG644S","尚悦街西街-瀑布广场","风景名胜;公园广场;城市广场","110105","tour","银城路与即墨路交叉路口往西北约100米(陆家嘴滨江金融城)尚悦街西街","121.510893","31.243454","121.50649989006742","31.245499482853187","[]","上海市","上海市","浦东新区"
"B0FFIKCHCZ","下沉式广场","风景名胜;公园广场;城市广场","110105","tour","陆家嘴环路1318号(陆家嘴地铁站1号入口步行460米)","121.503855","31.241779","121.49943672968314","31.24380424311882","[]","上海市","上海市","浦东新区"
"B0G3ZBM95V","尚悦街西街-欢乐广场","风景名胜;公园广场;城市广场","110105","tour","银城路与即墨路交叉路口往西北约100米(陆家嘴滨江金融城)尚悦街西街","121.511037","31.242696","121.50664446813015","31.244742250161046","[]","上海市","上海市","浦东新区"
"B00156NTUA","下沉式广场","风景名胜;公园广场;城市广场","110105","tour","淞沪路252-256号","121.516089","31.300461","121.51170946980561","31.30249765950494","[]","上海市","上海市","杨浦区"
"B00155LW4R","中心广场(凝晖路)","风景名胜;公园广场;城市广场","110105","tour","文昌路10号","121.492021","31.225569","121.48756143853069","31.22756617400682","[]","上海市","上海市","黄浦区"
"B0FFME0T8P","金桥老街广场","风景名胜;公园广场;城市广场","110105","tour","金桥路与杨高中路辅路交叉口西北160米","121.590297","31.250072","121.58609110580981","31.25226444624104","[]","上海市","上海市","浦东新区"
"B0FFGFBDC4","陆家嘴街道双拥广场","风景名胜;公园广场;城市广场","110105","tour","梅园新村","121.529689","31.234139","121.52536106167877","31.23624183609933","[]","上海市","上海市","浦东新区"
"B00155R1CU","文化广场(南桥路)","风景名胜;公园广场;城市广场","110105","tour","解放西路000号","121.45672","30.913646","121.45217317857052","30.915721263752406","[]","上海市","上海市","奉贤区"
"B00155QEOB","城市金融文化广场","风景名胜;公园广场;城市广场","110105","tour","浦东南路999号","121.516872","31.228291","121.51250130901231","31.230360910498394","[]","上海市","上海市","浦东新区"
"B0H3J62OVP","霍山公园-入口广场","风景名胜;公园广场;城市广场","110105","tour","霍山路118号霍山公园(近舟山路)","121.510968","31.253715","121.50657428940627","31.25575613641411","[]","上海市","上海市","虹口区"
"B001550HET","白玉兰广场","风景名胜;公园广场;城市广场","110105","tour","牡丹江路(安信商业广场对面)","121.4882","31.39594","121.48371225230728","31.397861257297713","[]","上海市","上海市","宝山区"
"B0FFHI5I4I","福满堂喜庆文化广场","风景名胜;公园广场;城市广场","110105","tour","侯家路59号(豫园地铁站3号口步行380米)","121.489500","31.227030","121.48503132868117","31.229019001710665","[]","上海市","上海市","黄浦区"
"B0FFFSCOEM","四平科技公园-膜结构广场","风景名胜;公园广场;城市广场","110105","tour","四平路1777号(近中山北二路)","121.505740","31.287468","121.5013246559346","31.289479276552008","[]","上海市","上海市","杨浦区"
"B00155MUIK","花木玉兰广场","风景名胜;公园广场;城市广场","110105","tour","花木镇牡丹路玉兰路(世纪公园地铁站3号口步行450米)","121.547541","31.206874","121.54326801853462","31.209032569098667","13386070657","上海市","上海市","浦东新区"
"B00156GMQ0","老白渡滨江绿地-张拉膜","风景名胜;公园广场;城市广场","110105","tour","滨江大道4298号","121.510252","31.221197","121.50585848301272","31.223250831432267","[]","上海市","上海市","浦东新区"
"B0HR0GSIRQ","湖畔文化广场","风景名胜;公园广场;城市广场","110105","tour","台儿庄路408号金桥公园","121.592896","31.257073","121.5886908761563","31.259263057141062","[]","上海市","上海市","浦东新区"
"B001556QTD","川沙广场","风景名胜;公园广场;城市广场","110105","tour","川沙镇东城壕路62弄19号201室-近","121.696954","31.193873","121.6926209139381","31.195955056008643","[]","上海市","上海市","浦东新区"
"B0FFH163L8","外滩佐邻佑里中心广场","风景名胜;公园广场;城市广场","110105","tour","中华路179号","121.497129","31.222733","121.49268803966463","31.224746795585848","[]","上海市","上海市","黄浦区"
"B00157I2HR","醉美茅台城市广场","风景名胜;公园广场;城市广场","110105","tour","苗江路上海设计中心东南侧约260米","121.497505","31.20007","121.493067323131","31.202095778789097","[]","上海市","上海市","黄浦区"
"B0FFHR2FY8","香樟广场","风景名胜;公园广场;城市广场","110105","tour","军工路2000号共青国家森林公园","121.548674","31.318084","121.54439469766656","31.320197071299983","[]","上海市","上海市","杨浦区"
"B00156DWJ8","闵行市民文化广场","风景名胜;公园广场;城市广场","110105","tour","平南路古美人口文化公园(古美小区南)","121.365431","31.177476","121.36081594245849","31.179364127469285","[]","上海市","上海市","闵行区"
"B0HD6SBAAC","中共一大纪念馆国旗广场","风景名胜;公园广场;城市广场","110105","tour","黄陂南路与湖滨路交叉口","121.476246","31.220104","121.47173220192622","31.222058070768536","[]","上海市","上海市","黄浦区"
"B0FFG95L9P","和平公园-和平广场","风景名胜;公园广场;城市广场","110105","tour","新港路和平公园","121.501865","31.269696","121.49743716395852","31.271703031338554","[]","上海市","上海市","虹口区"
"B0FFF3S7IM","上海展览中心-西南广场","风景名胜;公园广场;城市广场","110105","tour","延安中路1000号(静安寺地铁站8号口步行410米)","121.451660","31.223409","121.44707337037653","31.225300832370536","[]","上海市","上海市","静安区"
"B00155IQ2K","番禺文化广场","风景名胜;公园广场;城市广场","110105","tour","虹桥路637号","121.426727","31.196101","121.42209467690638","31.197965783322477","[]","上海市","上海市","徐汇区"
"B0FFL7LP0J","党建广场","风景名胜;公园广场;城市广场","110105","tour","浦三路635-637弄通道与齐恒路交叉口东北140米","121.520781","31.190301","121.51642704527447","31.192400351372342","[]","上海市","上海市","浦东新区"
"B0HUJS0EBE","法治文化广场","风景名胜;公园广场;城市广场","110105","tour","恒丰路299号(汉中路地铁站1号口步行120米)","121.457080","31.242303","121.4525059095843","31.24419800299865","[]","上海市","上海市","静安区"
"B0FFKZN65L","中成文化广场","风景名胜;公园广场;城市广场","110105","tour","长江路隧道中成智谷创意设计中心","121.497711","31.349486","121.4932613364596","31.35145005107548","[]","上海市","上海市","宝山区"
"B0FFFTEOVT","潍坊孝亲敬老广场","风景名胜;公园广场;城市广场|体育休闲服务;体育休闲服务场所;体育休闲服务场所","110105|080000","tour","崂山路709号(浦电路6号线地铁站4号口步行330米)","121.525802","31.220163","121.5214624961937","31.222261870671684","[]","上海市","上海市","浦东新区"
"B0FFH166MW","世博中心东广场","风景名胜;公园广场;城市广场","110105","tour","世博大道1500号","121.490789","31.186908","121.48632833500335","31.188920187035716","[]","上海市","上海市","浦东新区"
"B0H3TUMIH8","公园南入口广场","风景名胜;公园广场;城市广场","110105","tour","高斯路635号张江主题公园","121.610954","31.203719","121.60675336119964","31.20593038708699","[]","上海市","上海市","浦东新区"
"B0FFK6T9AB","岭南公园-中轴广场","风景名胜;公园广场;城市广场","110105","tour","汾西路600号","121.456357","31.314225","121.45177472284877","31.31608849872177","[]","上海市","上海市","静安区"
"B00155L38G","虹康绿地休闲广场","风景名胜;公园广场;城市广场","110105","tour","泉口路与剑河路交叉口东南100米","121.369007","31.212591","121.3643833201511","31.21445709350122","[]","上海市","上海市","长宁区"
"B0FFFS7R4F","鹏海广场","风景名胜;公园广场;城市广场","110105","tour","鹏飞路330号","121.556563","31.17185","121.55231501708221","31.174043659828104","[]","上海市","上海市","浦东新区"
"B0IAUSW94V","北蔡休闲绿地北园","风景名胜;公园广场;城市广场","110105","tour","北中路与北新路交叉口东北140米","121.565359","31.185382","121.56112795636004","31.187583002725034","[]","上海市","上海市","浦东新区"
"B00157HU93","塘东休闲广场","风景名胜;公园广场;城市广场","110105","tour","蓝村路与东方路交叉口西北160米","121.526527","31.212571","121.5221905376443","31.214675451809526","[]","上海市","上海市","浦东新区"
"B0HKLSRBSS","联圩广场","风景名胜;公园广场;城市广场","110105","tour","人民大道185号(人民广场地铁站1号口步行300米)","121.474538","31.229377","121.47001776843153","31.231322025968094","[]","上海市","上海市","黄浦区"
"B0IGUUZ2DW","双拥文化广场","风景名胜;公园广场;城市广场","110105","tour","通南路与新二路交叉口东160米","121.476257","31.338172","121.47173308654389","31.340077270335602","[]","上海市","上海市","宝山区"
"B0FFJY5BWE","宜川科普人文广场","风景名胜;公园广场;城市广场","110105","tour","宜川路99号","121.440161","31.259764","121.43554533408508","31.261617770209686","[]","上海市","上海市","普陀区"
"B0FFIRVRMF","南新绿地广场","风景名胜;公园广场;城市广场","110105","tour","下南路309弄70号南新小区休闲绿地","121.541918","31.170740","121.53763261491717","31.172904075503556","[]","上海市","上海市","浦东新区"
"B0GKA6X5VP","双拥广场","风景名胜;公园广场;城市广场","110105","tour","九江路与西藏中路交叉口西南120米","121.473656","31.233267","121.46913255102373","31.23520782138555","[]","上海市","上海市","黄浦区"
"B00155HQPD","由由新村文化广场","风景名胜;公园广场;城市广场","110105","tour","严中路388弄","121.531192","31.188205","121.5268727332099","31.190333790821864","[]","上海市","上海市","浦东新区"
"B00156Z31M","文化广场","风景名胜;公园广场;城市广场","110105","tour","嘉戬支路297附近","121.298349","31.37417","121.29385787901981","31.37609490429948","[]","上海市","上海市","嘉定区"
"B00156ZJV0","淮茂绿地","风景名胜;公园广场;城市广场","110105","tour","茂名南路59-14号","121.460269","31.21846","121.45570584296809","31.220373444915158","[]","上海市","上海市","黄浦区"
"B0FFHWO1I6","上海西站-北广场","风景名胜;公园广场;城市广场","110105","tour","桃浦路1号(上海西站地铁站6号口旁)","121.401764","31.264116","121.39710962192534","31.265936128252978","[]","上海市","上海市","普陀区"
"B0FFHR8NHA","世界文豪广场","风景名胜;公园广场;城市广场","110105","tour","四川北路2288号(虹口足球场地铁站1号口步行410米)","121.483354","31.269109","121.47886014759885","31.271061250104886","[]","上海市","上海市","虹口区"
"B0FFMGRIYF","天安中心广场","风景名胜;公园广场;城市广场","110105","tour","南京西路388号天安中心广场","121.469681","31.231783","121.46514494006777","31.233713853543673","[]","上海市","上海市","黄浦区"
"B0FFMGZCB3","八宝广场","风景名胜;公园广场;城市广场","110105","tour","淮海中路222号力宝广场","121.475908","31.224217","121.47139272785869","31.226168202481794","[]","上海市","上海市","黄浦区"
"B0FFGOC89Q","大风车曹路中心广场","风景名胜;公园广场;城市广场","110105","tour","民雨路25号附近","121.663572","31.275513","121.65929439012598","31.277619499293433","[]","上海市","上海市","浦东新区"
"B0H3J61TM4","树阵广场","风景名胜;公园广场;城市广场","110105","tour","凉城路800号凉城公园","121.471770","31.298109","121.46723487094836","31.300016967461822","[]","上海市","上海市","虹口区"
"B001556M4E","安亭市民广场","风景名胜;公园广场;城市广场","110105","tour","墨玉路328号","121.16444","31.299927","121.15989493622696","31.301812731271287","[]","上海市","上海市","嘉定区"
"B0FFL8GNXN","新天地-下沉式广场","风景名胜;公园广场;城市广场","110105","tour","淮海中路333号新天地广场","121.473805","31.222733","121.46928294163015","31.22467911831112","[]","上海市","上海市","黄浦区"
"B0FFFY1HJD","台北林家花园休闲生活广场","风景名胜;公园广场;城市广场","110105","tour","成山路192号(成山路地铁站4号口步行290米)","121.493622","31.170454","121.48917286529077","31.172482952438266","021-60752922","上海市","上海市","浦东新区"
"B0FFFRTMHG","北蔡镇大华文化广场","风景名胜;公园广场;城市广场","110105","tour","北艾路大华北公园","121.530504","31.180924","121.52618314431649","31.183054635697136","[]","上海市","上海市","浦东新区"
"B0FFH2QQHR","静安公园-静安寺广场","风景名胜;公园广场;城市广场","110105","tour","南京西路1661号(静安寺地铁站15号口步行200米)","121.445991","31.222472","121.44139094745785","31.22435297446016","021-62483238","上海市","上海市","静安区"
"B0FFJFKIC6","北广场","风景名胜;公园广场;城市广场","110105","tour","南京西路789号(南京西路地铁站5号口旁)","121.462549","31.229968","121.45799142132206","31.231881561097087","[]","上海市","上海市","静安区"
"B00156ZKU0","五星广场","风景名胜;公园广场;城市广场","110105","tour","北蔡镇西中路五星村道","121.571862","31.173209","121.5676429426464","31.175424555306105","[]","上海市","上海市","浦东新区"
"B0HRVXGACH","文化广场","风景名胜;公园广场;城市广场","110105","tour","高斯路635号张江主题公园","121.609417","31.204800","121.60521687639391","31.20701168051574","[]","上海市","上海市","浦东新区"
"B00155F2OS","吴泾文化广场","风景名胜;公园广场;城市广场","110105","tour","吴泾镇剑川路2号","121.468115","31.043281","121.46359021772489","31.04530759158492","[]","上海市","上海市","闵行区"
"B0HB3C9PJJ","112人民广场","风景名胜;公园广场;城市广场","110105","tour","石门一路德义大楼南侧约30米","121.461914","31.230724","121.45735450740113","31.232635665015728","[]","上海市","上海市","静安区"
"B0IAPZOS3F","花木玉兰广场(南)","风景名胜;公园广场;城市广场","110105","tour","樱花路与玉兰路交叉口东北40米","121.548049","31.206025","121.54377742240169","31.208185053468753","[]","上海市","上海市","浦东新区"
"B0H3J62OWH","健身广场","风景名胜;公园广场;城市广场","110105","tour","新市北路1505号江湾公园","121.482216","31.305647","121.47771507930469","31.30758112528898","[]","上海市","上海市","虹口区"
"B0IAPZNYFT","花木玉兰广场(北)","风景名胜;公园广场;城市广场","110105","tour","玉兰路与牡丹路交叉口东60米","121.547489","31.206873","121.54321588157802","31.209031459128195","[]","上海市","上海市","浦东新区"
"B0FFFEA9QK","长兴馆文化休闲广场","风景名胜;公园广场;城市广场","110105","tour","高桥西街与树德街交叉路口南侧","121.581426","31.343741","121.57720511460212","31.345891723793443","[]","上海市","上海市","浦东新区"
"B00155HSAM","康乐文化广场","风景名胜;公园广场;城市广场","110105","tour","[]","121.414133","31.148752","121.4094925135253","31.150630744838548","[]","上海市","上海市","徐汇区"
"B0FFFSC093","高东镇法制宣传广场","风景名胜;公园广场;城市广场","110105","tour","光泽路与高东新路交叉口西北40米","121.616257","31.330821","121.61204292849153","31.332974763952457","[]","上海市","上海市","浦东新区"
"B00155KNUJ","盛莲文体广场","风景名胜;公园广场;城市广场","110105","tour","浦三路821弄1-43号","121.521369","31.183456","121.51701763314873","31.18556042916216","[]","上海市","上海市","浦东新区"
"B00155LWT5","吴淞开埠纪念广场","风景名胜;公园广场;城市广场","110105","tour","吴淞镇","121.498751","31.372124","121.49430316358013","31.374083830520664","[]","上海市","上海市","宝山区"
"B0015211C3","虹桥文化广场","风景名胜;公园广场;城市广场","110105","tour","万源路2800号","121.386617","31.173738","121.3819765075996","31.175606019659842","021-64056200","上海市","上海市","闵行区"
"B001511181","金山广场","风景名胜;公园广场;城市广场","110105","tour","山阳镇金山大道2000号","121.342617","30.740789","121.33808331418238","30.742961313542775","[]","上海市","上海市","金山区"
"B0FFFH03PU","金山卫站北广场","风景名胜;公园广场;城市广场","110105","tour","卫阳南路120号","121.362084","30.728591","121.35751309133343","30.730736996486947","[]","上海市","上海市","金山区"
"B0FFJRVZ86","花神广场","风景名胜;公园广场;城市广场","110105","tour","河南南路太阳都市花园-一期","121.489084","31.222685","121.48461422327969","31.2246748002375","[]","上海市","上海市","黄浦区"
"B0015474F4","龙华滨江休闲广场","风景名胜;公园广场;城市广场","110105","tour","龙潭路18号","121.458454","31.151373","121.45389153193463","31.153315731297365","[]","上海市","上海市","徐汇区"
"B0H04Z7WCR","溪雨观悦荟广场(九江路)","风景名胜;公园广场;城市广场","110105","tour","九江路悦荟mosaic(南京东路地铁站3号口旁)","121.483725","31.236687","121.47923521130251","31.238654619982782","[]","上海市","上海市","黄浦区"
"B0G3M92BXH","咸恒广场","风景名胜;公园广场;城市广场","110105","tour","贵州路67号(人民广场地铁站19号口步行310米)","121.476304","31.235436","121.47178907881177","31.23738311015361","[]","上海市","上海市","黄浦区"
"B0HUV52386","龙华广场","风景名胜;公园广场;城市广场","110105","tour","龙华西路与龙华路交叉口北60米","121.451264","31.172989","121.44668074199743","31.174904695982445","[]","上海市","上海市","徐汇区"
"B00157GBHC","黄浦银杏广场","风景名胜;公园广场;城市广场","110105","tour","龙门路与金陵中路交叉口北40米","121.478582","31.226513","121.47407547196532","31.228470602707443","[]","上海市","上海市","黄浦区"
"B0FFF00ENR","南码头河滨休闲广场","风景名胜;公园广场;城市广场","110105","tour","浦三路635-637弄通道与齐恒路交叉口东北300米","121.521437","31.191683","121.51708517385863","31.193783518398025","[]","上海市","上海市","浦东新区"
"B0FFM44MOJ","芳华绿地","风景名胜;公园广场;城市广场","110105","tour","芳华路与白杨路交叉口东20米","121.558643","31.195798","121.55439762244082","31.19798328496085","[]","上海市","上海市","浦东新区"
"B0FFIHBE1D","居委广场","风景名胜;公园广场;城市广场","110105","tour","世纪大道东昌大楼西北侧约190米","121.511313","31.233755","121.50692220884385","31.235806133837013","[]","上海市","上海市","浦东新区"
"B00156F9HZ","庆典广场","风景名胜;公园广场;城市广场","110105","tour","浦东世博园区A片区(近世博文化中心)","121.491831","31.188865","121.48737388650079","31.19087931274971","[]","上海市","上海市","浦东新区"
"B00155QILA","张江科技文化广场","风景名胜;公园广场;城市广场","110105","tour","张江路610号","121.615031","31.204677","121.6108281597743","31.206885297495678","021-58953818;021-58963256","上海市","上海市","浦东新区"
"B00155HIHG","科普广场","风景名胜;公园广场;城市广场","110105","tour","中原路工农三村(市光路地铁站2号口步行90米)","121.532269","31.321727","121.52794194527044","31.323800199406133","[]","上海市","上海市","杨浦区"
"B0FFFDZ3AX","气象广场","风景名胜;公园广场;城市广场","110105","tour","中山东一路与延安东路交叉口东北40米","121.492120","31.233482","121.48766011793201","31.23547580585942","[]","上海市","上海市","黄浦区"
"B00155L4R9","华城广场","风景名胜;公园广场;城市广场","110105","tour","三林镇","121.490166","31.163046","121.48570514919705","31.165068465303158","[]","上海市","上海市","浦东新区"
"B00155CXXY","上海南站北广场","风景名胜;公园广场;城市广场","110105","tour","漕河泾镇动力北三路(上海南站地铁站5入口步行230米)","121.42758","31.154091","121.42295246070557","31.15597806779541","[]","上海市","上海市","徐汇区"
"B0FFGMD9ER","黄金广场","风景名胜;公园广场;城市广场","110105","tour","方浜中路249号(豫园地铁站7号口步行360米)","121.491230","31.227153","121.48676747750235","31.229147080378635","[]","上海市","上海市","黄浦区"
"B0FFHS8CFA","金桥公园-淮音广场","风景名胜;公园广场;城市广场","110105","tour","台儿庄路408号金桥公园","121.594041","31.257697","121.58983630967242","31.259886994897844","[]","上海市","上海市","浦东新区"
"B00153F3C7","吉浦广场","风景名胜;公园广场;城市广场","110105","tour","吉浦路三门路514号","121.490024","31.304021","121.4855506118633","31.30597859669368","13524577951","上海市","上海市","杨浦区"
"B0FFF358XU","同济大学音乐广场","风景名胜;公园广场;城市广场","110105","tour","同济大学","121.500116","31.283491","121.49568066310256","31.285487013157002","[]","上海市","上海市","杨浦区"
"B00155HSD8","上海南站南广场","风景名胜;公园广场;城市广场","110105","tour","上海南站地铁站2号口步行160米","121.432022","31.15128","121.42740122112761","31.153173977690056","[]","上海市","上海市","徐汇区"
"B0FFM1S84T","北蔡休闲绿地","风景名胜;公园广场;城市广场|风景名胜;公园广场;公园","110105|110101","tour","北中路571号","121.565912","31.186071","121.5616819132818","31.188272443178146","[]","上海市","上海市","浦东新区"
"B0FFF00I7R","春广场","风景名胜;公园广场;城市广场","110105","tour","复兴中路516复兴公园","121.468328","31.217795","121.46378890991456","31.219728847292583","[]","上海市","上海市","黄浦区"
"B0015081F1","颛桥文化广场","风景名胜;公园广场;城市广场","110105","tour","颛兴路162号","121.397131","31.067142","121.39249437560522","31.069063218858847","021-64894923;13661544552","上海市","上海市","闵行区"
"B00155HMKD","上海白玉兰人口文化广场","风景名胜;公园广场;城市广场","110105","tour","天目西路307号(上海火车站地铁站3号口步行170米)","121.454181","31.246761","121.44959879472428","31.248647535246263","[]","上海市","上海市","静安区"
"B00156D68Q","东海广场","风景名胜;公园广场;城市广场","110105","tour","祝桥东海镇","121.810671","31.093129","121.80639826578546","31.095275861524694","[]","上海市","上海市","浦东新区"
"B0FFF5DUO3","五角场广场","风景名胜;公园广场;城市广场|购物服务;家电电子卖场;手机销售","110105|060305","tour","五角场地铁站5号口步行100米","121.51566","31.299918","121.5112790088114","31.301953627459387","[]","上海市","上海市","杨浦区"
"B0H3THH3QW","活动广场","风景名胜;公园广场;城市广场","110105","tour","包头路929号(近殷行路)工农公园","121.537816","31.325620","121.53350568759916","31.32770570128994","[]","上海市","上海市","杨浦区"
"B0FFGB2QON","嘉宁休闲广场","风景名胜;公园广场;城市广场","110105","tour","大木桥路428号(大木桥路地铁站4号口步行280米)","121.462190","31.196455","121.45763426398597","31.198383678772167","[]","上海市","上海市","徐汇区"
"B0I6A529SF","阿拉丁婚庆园鸽子广场","风景名胜;公园广场;城市广场","110105","tour","局门路735号2号门","121.484983","31.192817","121.48050134063838","31.1948091506932","[]","上海市","上海市","黄浦区"
"B0H3TRMLJG","丽园公园-西广场","风景名胜;公园广场;城市广场","110105","tour","丽园路565号丽园公园","121.477522","31.207026","121.47301357928217","31.208989866818033","[]","上海市","上海市","黄浦区"
"B0HRKSAJ25","瑞金医院1907广场","风景名胜;公园广场;城市广场","110105","tour","瑞金医院8号楼前","121.467109","31.212903","121.46256656385758","31.214836022259934","[]","上海市","上海市","黄浦区"
"B00156ZKIG","环东广场","风景名胜;公园广场;城市广场","110105","tour","孙浦路375号","121.658545","31.185738","121.65428443885335","31.187895296118263","[]","上海市","上海市","浦东新区"
"B0HAK9L9M9","美甲店文化广场","风景名胜;公园广场;城市广场","110105","tour","复兴中路599号美(陕西南路地铁站6号口步行340米)","121.461081","31.212987","121.45652063408927","31.21490498607174","[]","上海市","上海市","黄浦区"
"B0FFMBAOVH","卢浦滨江广场","风景名胜;公园广场;城市广场","110105","tour","鲁班路909号","121.479265","31.192810","121.4747636678055","31.194785719332028","[]","上海市","上海市","黄浦区"
"B0GDDX02UW","阳光休闲广场","风景名胜;公园广场;城市广场","110105","tour","爱辉路通河六村78-102号院北侧约30米","121.455011","31.332678","121.45042352722278","31.334531716801624","[]","上海市","上海市","宝山区"
"B0FFKEPZYV","健康广场","风景名胜;公园广场;城市广场","110105","tour","张江镇广兰路965号(近紫薇路)广兰公园","121.619904","31.208766","121.61569733310688","31.210968349071077","[]","上海市","上海市","浦东新区"
"B0FFFZSAKN","冬园","风景名胜;公园广场;城市广场|风景名胜;风景名胜;风景名胜","110105|110200","tour","雁荡路99号(一大会址·黄陂南路地铁站1号口步行480米)","121.468762","31.222707","121.46422383935162","31.22463966360887","[]","上海市","上海市","黄浦区"
"B0FFG21AHZ","儿童游乐区-休息广场","风景名胜;公园广场;城市广场","110105","tour","高桥镇凌桥高沙滩3号上海滨江森林公园特色植物观赏区儿童游乐区内","121.533158","31.383770","121.5288285206675","31.38582477865745","[]","上海市","上海市","浦东新区"
"B0FFI6407L","志丹园-同济宝隆健康广场","风景名胜;公园广场;城市广场","110105","tour","志丹路368号志丹园","121.430713","31.268214","121.42608003086781","31.270050307737364","[]","上海市","上海市","普陀区"
"B00156ZIX5","九曲桥广场","风景名胜;公园广场;城市广场","110105","tour","湖心亭(豫园西南)","121.491834","31.226411","121.4873736981495","31.228407224192832","[]","上海市","上海市","黄浦区"
"B0FFFCUZUR","大华·朗香广场","风景名胜;公园广场;城市广场","110105","tour","大场镇华秋路58弄69号(锦秋路地铁站3号口步行60米)","121.381532","31.319435","121.37688329480365","31.321242065634955","[]","上海市","上海市","宝山区"
"B00155MVT0","古美生活购物广场","购物服务;商场;购物中心|风景名胜;公园广场;城市广场","060101|110105","[]","龙茗路1300弄","121.38568","31.143339","121.38104288529439","31.14522346458918","021-54166733","上海市","上海市","闵行区"
"B0FFHC4VLY","海运广场","风景名胜;公园广场;城市广场","110105","tour","东大名路684附近","121.502895","31.249284","121.49847262318437","31.251302997499153","[]","上海市","上海市","虹口区"
"B0HKVH53L1","陆家嘴软件园中心广场","风景名胜;公园广场;城市广场","110105","tour","竹林路陆家嘴软件园","121.531939","31.217787","121.52761962790046","31.219903357622346","[]","上海市","上海市","浦东新区"
"B00155IJPG","水景广场","风景名胜;公园广场;城市广场","110105","tour","方泰镇(上海赛车场地铁站5号口旁)","121.226071","31.331881","121.2216273890103","31.33385148335575","[]","上海市","上海市","嘉定区"
"B0FFFF2QPX","上海展览中心-东北广场","风景名胜;公园广场;城市广场","110105","tour","[]","121.453210","31.226440","121.44862703964456","31.228333706298976","[]","上海市","上海市","静安区"
"B0FFG0P3N2","长海一村休闲广场","风景名胜;公园广场;城市广场","110105","tour","中原路长海一村(东方肝胆外科医院北)","121.530320","31.311040","121.52598763193956","31.31311212327626","[]","上海市","上海市","杨浦区"
"B001577IAR","九亭文化广场","风景名胜;公园广场;城市广场","110105","tour","九亭大街473弄1-49号","121.32996","31.130585","121.3254212815796","31.132558812765115","18621966858","上海市","上海市","松江区"
"B00157HS6Y","城市广场(东方希望大厦东南)-绽放","风景名胜;公园广场;城市广场","110105","tour","世纪大道与丁香路交叉口西北40米","121.540727","31.220927","121.5364340127475","31.22306362248601","[]","上海市","上海市","浦东新区"
"B00155MPZB","萨克斯广场","风景名胜;公园广场;城市广场","110105","tour","洛川中路1158号","121.448222","31.26332","121.44362355302617","31.2651868834294","[]","上海市","上海市","静安区"
"B0HBRX87UD","世纪同框广场","风景名胜;公园广场;城市广场","110105","tour","北苏州路29号","121.489368","31.24411","121.48489740170618","31.246090798710323","18017713232","上海市","上海市","虹口区"
"B0FFL05NG4","欢乐广场","风景名胜;公园广场;城市广场","110105","tour","四川北路地铁站1号口步行110米","121.484461","31.253410","121.47997233922752","31.25537225570713","[]","上海市","上海市","虹口区"
"B001518219","久良财富休闲广场","风景名胜;公园广场;城市广场","110105","tour","真如镇街道大渡河路1600号","121.397609","31.247035","121.39295662039613","31.24886310330329","[]","上海市","上海市","普陀区"
"B0FFH85SXR","紫藤广场","风景名胜;公园广场;城市广场","110105","tour","中原工农新村小学(市光路地铁站东)","121.534984","31.323444","121.53066527356918","31.325523490304818","[]","上海市","上海市","杨浦区"
"B0FFFF878V","上海展览中心-喷水池广场","风景名胜;公园广场;城市广场","110105","tour","延安中路1000号(静安寺地铁站8号口步行450米)","121.453190","31.223937","121.44860720481837","31.225831831753375","[]","上海市","上海市","静安区"
"B0FFI9O4JO","人口文化广场","风景名胜;公园广场;城市广场","110105","tour","夏碧路261号外高桥市民广场","121.587636","31.337847","121.5834210896092","31.340003409087803","[]","上海市","上海市","浦东新区"
"B0FFF00IJ4","高东镇新高苑社区文化广场","风景名胜;公园广场;城市广场","110105","tour","高东镇","121.624819","31.291833","121.62060094039994","31.29399367300904","[]","上海市","上海市","浦东新区"
"B0FFG95PZ4","交通公园-中轴广场","风景名胜;公园广场;城市广场","110105","tour","新马路262交通公园","121.467280","31.247410","121.46273511775969","31.24932751231091","[]","上海市","上海市","静安区"
"B0FFH1Z360","惠优玛特社区休闲广场","风景名胜;公园广场;城市广场","110105","tour","行南路353b-05号","121.588278","31.327359","121.58406441378641","31.32951943177507","[]","上海市","上海市","浦东新区"
"B0FFK7RAI2","浦东电影广场","风景名胜;公园广场;城市广场","110105","tour","玉兰路与牡丹路交叉口东南40米","121.547300","31.206847","121.54302638476017","31.209005069437666","[]","上海市","上海市","浦东新区"
"B0FFFSAGOX","高荣睦邻小广场","风景名胜;公园广场;城市广场","110105","tour","万航渡路661弄1-68号高荣小区(万航渡路)附近","121.432619","31.227451","121.42799256014054","31.229307960593612","[]","上海市","上海市","静安区"
"B0FFF9RCPI","高尔夫广场","风景名胜;公园广场;城市广场","110105","tour","龙华东路810号黄浦绿地缤纷城(海外滩)","121.474198","31.193249","121.4696797557844","31.195210395313346","[]","上海市","上海市","黄浦区"
"B0HRV96UAR","一村通广场","风景名胜;公园广场;城市广场","110105","tour","四川北路利通广场(四川北路地铁站1号口旁)","121.484846","31.252581","121.48035875260572","31.25454474150292","[]","上海市","上海市","虹口区"
"B00155KF1W","中原休闲广场","风景名胜;公园广场;城市广场","110105","tour","国和路与中原路交叉路口往南约130米","121.53225","31.316994","121.52792328329265","31.319068910688916","[]","上海市","上海市","杨浦区"
"B00155KSAR","兰馨广场","风景名胜;公园广场;城市广场","110105","tour","霍山路1225号(江浦公园地铁站1号口步行490米)","121.527621","31.265071","121.52328373054927","31.267154570566486","[]","上海市","上海市","杨浦区"
"B00153B159","洋泾社区文化广场","风景名胜;公园广场;城市广场","110105","tour","栖山路436号","121.551341","31.247319","121.54707437098602","31.24946657264576","[]","上海市","上海市","浦东新区"
"B0FFIHD1HK","邻睦广场","风景名胜;公园广场;城市广场","110105","tour","松花江路上海理工大学附属小学西北侧约120米","121.538725","31.293157","121.53442011473513","31.29525732954948","[]","上海市","上海市","杨浦区"
"B001549097","轮渡广场","风景名胜;公园广场;城市广场","110105","tour","人民路隧道与富城路交叉口西北100米","121.502824","31.230556","121.4984029565199","31.232583274710475","[]","上海市","上海市","浦东新区"
"B00155IM05","上海文化广场","风景名胜;公园广场;城市广场","110105","tour","茂名南路178号(陕西南路地铁站6号口步行390米)","121.462196","31.211941","121.45763894665818","31.213862182576673","021-54619961","上海市","上海市","黄浦区"
"B00154DH3B","世纪广场","风景名胜;公园广场;城市广场","110105","tour","世纪大道2100号(上海科技馆地铁站2号口旁)","121.542992","31.219718","121.53870556494411","31.22186042807684","021-68540056","上海市","上海市","浦东新区"
"B00155MSX9","国歌纪念广场","风景名胜;公园广场;城市广场","110105","tour","荆州路151号(大连路地铁站2号口步行130米)","121.514551","31.257933","121.5101696530833","31.259982819596015","[]","上海市","上海市","杨浦区"
"B00155QN22","休闲广场","风景名胜;公园广场;城市广场","110105","tour","益江路","121.632308","31.199234","121.62808899372527","31.20142712540107","[]","上海市","上海市","浦东新区"
"B0FFII5WHM","光明生态园","风景名胜;公园广场;城市广场","110105","tour","川沙新镇上海迪士尼度假区","121.671403","31.14685","121.66712095106206","31.149003009130464","[]","上海市","上海市","浦东新区"
"B00155FX4E","东门广场","风景名胜;公园广场;城市广场","110105","tour","金坛路(小南门地铁站3号口步行240米)","121.497887","31.219","121.49344909309747","31.221017830472483","[]","上海市","上海市","黄浦区"
"B0FFIBV64L","米兰广场","风景名胜;公园广场;城市广场","110105","tour","国权路","121.518465","31.288190","121.51409480286881","31.290238407740684","[]","上海市","上海市","杨浦区"
"B00156ZKQG","明珠广场","风景名胜;公园广场;城市广场","110105","tour","世纪大道与陆家嘴环路交叉口","121.501326","31.237374","121.49689896155454","31.239393643489922","[]","上海市","上海市","浦东新区"
"B00155NBIB","高行市民休闲广场","风景名胜;公园广场;城市广场","110105","tour","东沟镇","121.605151","31.292238","121.60094474310175","31.29441256794382","[]","上海市","上海市","浦东新区"
"B00155K9Z4","外高桥市民广场","风景名胜;公园广场;城市广场","110105","tour","夏碧路261号","121.587623","31.337743","121.58340808883757","31.339899439829527","[]","上海市","上海市","浦东新区"
"B00155IOMR","平安社区文化广场","风景名胜;公园广场;城市广场","110105","tour","平安镇","121.732796","30.897131","121.72844839453805","30.899337418079693","[]","上海市","上海市","奉贤区"
"B0FFFS7CLJ","四平科技公园-中心广场","风景名胜;公园广场;城市广场","110105","tour","内环高架路四平科技公园(国权路地铁站3号口步行380米)","121.507270","31.287128","121.50286019830959","31.289143988941515","[]","上海市","上海市","杨浦区"
"B0FFGE919X","海上海.弘基休闲广场C","风景名胜;公园广场;城市广场","110105","tour","大连路431附近","121.507725","31.266778","121.50331856177137","31.268803834615024","[]","上海市","上海市","杨浦区"
"B0015081AE","莘庄地铁北广场","风景名胜;公园广场;城市广场","110105","tour","水清南路(莘庄地铁站北1口步行280米)","121.383665","31.112339","121.37903229509655","31.114241689839687","[]","上海市","上海市","闵行区"
"B00156THIO","金桥市民文化广场","风景名胜;公园广场;城市广场","110105","tour","佳林路551号","121.610128","31.267898","121.60592239211014","31.270080515252786","[]","上海市","上海市","浦东新区"
"B0FFHEN14R","假日广场","风景名胜;公园广场;城市广场","110105","tour","春申路畹町路","121.401429","31.105658","121.39678842242633","31.10755698138671","[]","上海市","上海市","闵行区"
"B00157I4O6","望三村文化广场","风景名胜;公园广场;城市广场","110105","tour","水闸南路219号","121.765662","31.152874","121.76130235610603","31.154931898100173","[]","上海市","上海市","浦东新区"
"B00156EETF","光大广场","风景名胜;公园广场;城市广场","110105","tour","草港公路与平南东路交叉路口往东约120米","121.529915","31.627216","121.52555456395814","31.629226600773894","[]","上海市","上海市","崇明区"
"B0FFLDP2HL","苏民党建文化广场","风景名胜;公园广场;城市广场","110105","tour","陈行公路上海闵行区苏民幼儿园北侧约170米","121.533042","31.108864","121.52873520898622","31.1110393479149","[]","上海市","上海市","闵行区"
"B0FFGK3QES","半圆休息区","风景名胜;公园广场;城市广场","110105","tour","康健园","121.420227","31.163465","121.41559012307492","31.165340104397373","[]","上海市","上海市","徐汇区"
"B00156O6BX","科普广场","风景名胜;公园广场;城市广场","110105","tour","真光路真源小区","121.382079","31.242835","121.3774364382071","31.24467317657263","[]","上海市","上海市","普陀区"
"B0FFKW3H69","大华虎城中心广场","风景名胜;公园广场;城市广场","110105","tour","大华路348号","121.412480","31.271650","121.40782782458945","31.273469174013858","[]","上海市","上海市","宝山区"
"B0FFFSABMP","召稼楼-牌楼广场","风景名胜;公园广场;城市广场","110105","tour","浦江镇沈杜公路2059号佰末街3号","121.549021","31.074555","121.54476286510712","31.076786814456888","[]","上海市","上海市","闵行区"
"B0FFF2F9QO","欧典广场","风景名胜;公园广场;城市广场","110105","tour","浦明路1888号","121.509381","31.207246","121.5049855461158","31.209303894952075","[]","上海市","上海市","浦东新区"
"B0FFF9UXBV","世博绿色出行林","风景名胜;公园广场;城市广场","110105","tour","华泾路188弄1-5号","121.461017","31.121263","121.45646434870513","31.123227892088742","[]","上海市","上海市","徐汇区"
"B0FFK8DJ36","鸽子广场","风景名胜;公园广场;城市广场","110105","tour","顾村镇沪太路4788号顾村公园3号门内","121.359904","31.334526","121.35528475386431","31.336353765243082","[]","上海市","上海市","宝山区"
"B0FFFZXN5L","半岛大都汇","风景名胜;公园广场;城市广场","110105","tour","顾戴路1178号","121.386145","31.139369","121.38150785929619","31.14125525652861","[]","上海市","上海市","闵行区"
"B0GRKU680J","长兴镇生态园广场","风景名胜;公园广场;城市广场","110105","tour","海舸路666号","121.698007","31.389066","121.69365571989968","31.391068428712686","[]","上海市","上海市","崇明区"
"B0H3DSQHDA","樱花广场","风景名胜;公园广场;城市广场","110105","tour","顾村镇沪太路4788号顾村公园内森林休闲运动园","121.370699","31.337591","121.36606195750197","31.33940280150184","13761302727","上海市","上海市","宝山区"
"B0FFI9NSBG","闵行市民文化广场","风景名胜;公园广场;城市广场","110105","tour","曹建路328号","121.441120","31.091449","121.43652084201426","31.09338925626569","[]","上海市","上海市","闵行区"
"B0GUGM0YKX","乐添乐教育广场","风景名胜;公园广场;城市广场","110105","tour","古美路432号","121.405732","31.143027","121.40108852087765","31.14490594752613","[]","上海市","上海市","闵行区"
"B0H3DDR0Y5","亲水广场","风景名胜;公园广场;城市广场","110105","tour","川周公路2740号康桥生态园沔青绿地","121.629392","31.149499","121.62518069971463","31.151721125895655","[]","上海市","上海市","浦东新区"
"B0FFH8D7W2","闵行市民文化广场(吴中路)","风景名胜;公园广场;城市广场","110105","tour","七宝镇闵行文化公园(航中路地铁站2号口步行450米)","121.359596","31.167413","121.35499180921514","31.169314753642308","[]","上海市","上海市","闵行区"
